[
  {
    "name": "Abadan",
    "country": "Iran",
    "region": "Iran -- 48410",
    "lon": 48.28,
    "lat": 30.33,
    "alternate": null
  },
  {
    "name": "Abashiri Ko",
    "country": "Japan",
    "region": "Japan -- 61100",
    "lon": 144.28,
    "lat": 44.02,
    "alternate": null
  },
  {
    "name": "Aberdeen",
    "country": "United Kingdom",
    "region": "Scotland East Coast -- 31870",
    "lon": -2.08,
    "lat": 57.15,
    "alternate": null
  },
  {
    "name": "Abidjan",
    "country": "Cote D'Ivoire",
    "region": "Ivory Coast -- 45960",
    "lon": -4.02,
    "lat": 5.25,
    "alternate": null
  },
  {
    "name": "Abu Khammash",
    "country": "Libya",
    "region": "Libya -- 45200",
    "lon": 11.82,
    "lat": 33.07,
    "alternate": null
  },
  {
    "name": "Abu Qir",
    "country": "Egypt",
    "region": "Egypt Mediterranean -- 45120",
    "lon": 30.08,
    "lat": 31.32,
    "alternate": null
  },
  {
    "name": "Acajutla",
    "country": "El Salvador",
    "region": "El Salvador -- 15590",
    "lon": -89.83,
    "lat": 13.58,
    "alternate": null
  },
  {
    "name": "Acapulco",
    "country": "Mexico",
    "region": "Mexico West Coast -- 15700",
    "lon": -99.93,
    "lat": 16.85,
    "alternate": null
  },
  {
    "name": "Achladi",
    "country": "Greece",
    "region": "Greece East Coast -- 42010",
    "lon": 22.82,
    "lat": 38.9,
    "alternate": null
  },
  {
    "name": "Adak Naval Air Station",
    "country": "United States",
    "region": "Aleutian Islands -- 20095",
    "lon": -176.63,
    "lat": 51.87,
    "alternate": null
  },
  {
    "name": "Admiralty Bay",
    "country": "Antarctica",
    "region": "Antarctica -- 63060",
    "lon": -58.42,
    "lat": -62.08,
    "alternate": null
  },
  {
    "name": "Adra",
    "country": "Spain",
    "region": "Spain SE Coast -- 38340",
    "lon": -3.03,
    "lat": 36.73,
    "alternate": null
  },
  {
    "name": "Aeroskobing",
    "country": "Denmark",
    "region": "Aero -- 29780",
    "lon": 10.42,
    "lat": 54.88,
    "alternate": null
  },
  {
    "name": "Agadir",
    "country": "Morocco",
    "region": "",
    "lon": -9.63,
    "lat": 30.43,
    "alternate": null
  },
  {
    "name": "Agbami Oil Terminal",
    "country": "Nigeria",
    "region": "Nigeria -- 46120",
    "lon": 5.57,
    "lat": 3.47,
    "alternate": null
  },
  {
    "name": "Aguadilla",
    "country": "Puerto Rico",
    "region": "Puerto Rico -- 11080",
    "lon": -67.15,
    "lat": 18.43,
    "alternate": null
  },
  {
    "name": "Aguilas",
    "country": "Spain",
    "region": "Spain SE Coast -- 38340",
    "lon": -1.57,
    "lat": 37.4,
    "alternate": null
  },
  {
    "name": "Ahousat",
    "country": "Canada",
    "region": "Canada West Coast -- 18080",
    "lon": -126.07,
    "lat": 49.28,
    "alternate": null
  },
  {
    "name": "Ahukini Landing",
    "country": "United States",
    "region": "Hawaiian Islands -- 56050",
    "lon": -159.33,
    "lat": 22.0,
    "alternate": null
  },
  {
    "name": "Ahus",
    "country": "Sweden",
    "region": "Sweden -- 23860",
    "lon": 14.33,
    "lat": 55.93,
    "alternate": null
  },
  {
    "name": "Aioi",
    "country": "Japan",
    "region": "Japan -- 61100",
    "lon": 134.47,
    "lat": 34.78,
    "alternate": null
  },
  {
    "name": "Ajman",
    "country": "United Arab Emirates",
    "region": "United Arab Emirates -- 48260",
    "lon": 55.43,
    "lat": 25.42,
    "alternate": null
  },
  {
    "name": "Akaroa",
    "country": "New Zealand",
    "region": "New Zealand S Island -- 55260",
    "lon": 172.97,
    "lat": -43.8,
    "alternate": null
  },
  {
    "name": "Akpo Oil Terminal",
    "country": "Nigeria",
    "region": "Nigeria -- 46120",
    "lon": 6.82,
    "lat": 3.13,
    "alternate": null
  },
  {
    "name": "Akrahamn",
    "country": "Norway",
    "region": "Norway -- 20620",
    "lon": 5.18,
    "lat": 59.27,
    "alternate": null
  },
  {
    "name": "Aksaz Limani",
    "country": "Turkey",
    "region": "Italy -- 40345",
    "lon": 28.38,
    "lat": 36.83,
    "alternate": null
  },
  {
    "name": "Akutan Harbor",
    "country": "United States",
    "region": "Aleutian Islands -- 20095",
    "lon": -165.8,
    "lat": 54.13,
    "alternate": null
  },
  {
    "name": "Al Basrah",
    "country": "Iraq",
    "region": "Iraq -- 48375",
    "lon": 47.83,
    "lat": 30.52,
    "alternate": null
  },
  {
    "name": "Al Hamriyah Lpg Terminal",
    "country": "United Arab Emirates",
    "region": "United Arab Emirates -- 48260",
    "lon": 55.48,
    "lat": 25.47,
    "alternate": null
  },
  {
    "name": "Al Iskandariyh (Alexandria)",
    "country": "Egypt",
    "region": "Egypt Mediterranean -- 45120",
    "lon": 29.83,
    "lat": 31.17,
    "alternate": null
  },
  {
    "name": "Al Jubayl",
    "country": "Saudi Arabia",
    "region": "Saudi Arabia Continued -- 48330",
    "lon": 49.67,
    "lat": 27.08,
    "alternate": null
  },
  {
    "name": "Al Khair Oil Terminal",
    "country": "Sudan",
    "region": "Sudan -- 47910",
    "lon": 37.25,
    "lat": 19.58,
    "alternate": null
  },
  {
    "name": "Al Manamah",
    "country": "Bahrain",
    "region": "Bahrain -- 48305",
    "lon": 50.58,
    "lat": 26.23,
    "alternate": null
  },
  {
    "name": "Al Mukha",
    "country": "Yemen",
    "region": "Yemen Aden -- 48143",
    "lon": 43.25,
    "lat": 13.32,
    "alternate": null
  },
  {
    "name": "Al Rayyan Terminal",
    "country": "Qatar",
    "region": "Qatar -- 48285",
    "lon": 51.55,
    "lat": 26.65,
    "alternate": null
  },
  {
    "name": "Al Shaheen Terminal",
    "country": "Qatar",
    "region": "Qatar -- 48285",
    "lon": 52.0,
    "lat": 26.58,
    "alternate": null
  },
  {
    "name": "Alabaster",
    "country": "United States",
    "region": "US Lake Huron -- 4300",
    "lon": -83.55,
    "lat": 44.18,
    "alternate": null
  },
  {
    "name": "Alameda",
    "country": "United States",
    "region": "United States W Coast -- 16000",
    "lon": -122.27,
    "lat": 37.78,
    "alternate": null
  },
  {
    "name": "Alanya",
    "country": "Turkey",
    "region": "Turkey Asia -- 44360",
    "lon": 32.0,
    "lat": 36.53,
    "alternate": null
  },
  {
    "name": "Albany",
    "country": "United States",
    "region": "United States E Coast -- 6585",
    "lon": -73.75,
    "lat": 42.65,
    "alternate": null
  },
  {
    "name": "Alcan Harbor",
    "country": "United States",
    "region": "Aleutian Islands -- 20095",
    "lon": 174.07,
    "lat": 52.73,
    "alternate": null
  },
  {
    "name": "Aleksandrovsk -Sakhalinskiy",
    "country": "Russia",
    "region": "Sakhalin -- 60840",
    "lon": 142.13,
    "lat": 50.9,
    "alternate": null
  },
  {
    "name": "Alert Bay",
    "country": "Canada",
    "region": "Canada West Coast -- 18080",
    "lon": -126.93,
    "lat": 50.58,
    "alternate": null
  },
  {
    "name": "Alexandria",
    "country": "United States",
    "region": "United States E Coast -- 6585",
    "lon": -77.03,
    "lat": 38.8,
    "alternate": null
  },
  {
    "name": "Alexandria Bay",
    "country": "United States",
    "region": "US St Lawrence R -- 2750",
    "lon": -75.92,
    "lat": 44.33,
    "alternate": null
  },
  {
    "name": "Alexandroupoli",
    "country": "Greece",
    "region": "Greece East Coast -- 42010",
    "lon": 25.88,
    "lat": 40.83,
    "alternate": null
  },
  {
    "name": "Algeciras",
    "country": "Spain",
    "region": "Spain SW Coast -- 38200",
    "lon": -5.43,
    "lat": 36.13,
    "alternate": null
  },
  {
    "name": "Alghero",
    "country": "Italy",
    "region": "Sardegna -- 39130",
    "lon": 8.31,
    "lat": 40.57,
    "alternate": null
  },
  {
    "name": "Algoma",
    "country": "United States",
    "region": "US Lake Michigan -- 4570",
    "lon": -87.43,
    "lat": 44.6,
    "alternate": null
  },
  {
    "name": "Algonac",
    "country": "United States",
    "region": "US Lake Huron -- 4300",
    "lon": -82.52,
    "lat": 42.62,
    "alternate": null
  },
  {
    "name": "Aliaga",
    "country": "Turkey",
    "region": "Turkey Europe -- 43325",
    "lon": 26.93,
    "lat": 38.83,
    "alternate": null
  },
  {
    "name": "Alicante",
    "country": "Spain",
    "region": "Spain SE Coast -- 38340",
    "lon": -0.48,
    "lat": 38.33,
    "alternate": null
  },
  {
    "name": "Alliford Bay",
    "country": "Canada",
    "region": "Canada West Coast -- 18080",
    "lon": -131.98,
    "lat": 53.22,
    "alternate": null
  },
  {
    "name": "Almeria",
    "country": "Spain",
    "region": "Spain SE Coast -- 38340",
    "lon": -2.47,
    "lat": 36.83,
    "alternate": null
  },
  {
    "name": "Almirante",
    "country": "Panama",
    "region": "Panama East Coast -- 9820",
    "lon": -82.4,
    "lat": 9.3,
    "alternate": null
  },
  {
    "name": "Alofi",
    "country": "Niue",
    "region": "Niue -- 55685",
    "lon": -169.93,
    "lat": -19.03,
    "alternate": null
  },
  {
    "name": "Alpena",
    "country": "United States",
    "region": "US Lake Huron -- 4300",
    "lon": -83.42,
    "lat": 45.07,
    "alternate": null
  },
  {
    "name": "Alta",
    "country": "Norway",
    "region": "Norway -- 20620",
    "lon": 23.24,
    "lat": 69.97,
    "alternate": null
  },
  {
    "name": "Altamira",
    "country": "Mexico",
    "region": "Mexico East Coast -- 9350",
    "lon": -97.85,
    "lat": 22.48,
    "alternate": null
  },
  {
    "name": "Alushta",
    "country": "Ukraine",
    "region": "Ukraine -- 43620",
    "lon": 34.42,
    "lat": 44.68,
    "alternate": null
  },
  {
    "name": "Amagasaki",
    "country": "Japan",
    "region": "Japan -- 61100",
    "lon": 135.38,
    "lat": 34.7,
    "alternate": null
  },
  {
    "name": "Amamapare",
    "country": "Indonesia",
    "region": "New Guinea West Coast - Irian Jaya -- 52900",
    "lon": 136.97,
    "lat": -4.82,
    "alternate": null
  },
  {
    "name": "Ambarli",
    "country": "Turkey",
    "region": "Turkey Europe -- 43325",
    "lon": 28.7,
    "lat": 40.97,
    "alternate": null
  },
  {
    "name": "Amber Cove",
    "country": "Dominican Republic",
    "region": "",
    "lon": -70.77,
    "lat": 19.83,
    "alternate": null
  },
  {
    "name": "Amherstburg",
    "country": "Canada",
    "region": "Canada Lake Erie -- 3240",
    "lon": -83.1,
    "lat": 42.1,
    "alternate": null
  },
  {
    "name": "Ampenan",
    "country": "Indonesia",
    "region": "Lesser Sunda Islands -- 51250",
    "lon": 116.07,
    "lat": -8.57,
    "alternate": null
  },
  {
    "name": "Amsterdam",
    "country": "Netherlands",
    "region": "Netherlands -- 30980",
    "lon": 4.9,
    "lat": 52.37,
    "alternate": null
  },
  {
    "name": "Anacortes",
    "country": "United States",
    "region": "United States W Coast -- 16000",
    "lon": -122.62,
    "lat": 48.52,
    "alternate": null
  },
  {
    "name": "Anapa",
    "country": "Russia",
    "region": "Russia -- 44030",
    "lon": 37.32,
    "lat": 44.88,
    "alternate": null
  },
  {
    "name": "Anchorage",
    "country": "United States",
    "region": "Alaska -- 19080",
    "lon": -149.9,
    "lat": 61.22,
    "alternate": null
  },
  {
    "name": "Ancona",
    "country": "Italy",
    "region": "Italy East Coast -- 40390",
    "lon": 13.49,
    "lat": 43.63,
    "alternate": null
  },
  {
    "name": "Andalsnes",
    "country": "Norway",
    "region": "Norway -- 20620",
    "lon": 7.68,
    "lat": 62.57,
    "alternate": null
  },
  {
    "name": "Andenes",
    "country": "Norway",
    "region": "Norway -- 20620",
    "lon": 16.13,
    "lat": 69.33,
    "alternate": null
  },
  {
    "name": "Andersen Harbor",
    "country": "Antarctica",
    "region": "Antarctica -- 63060",
    "lon": -62.93,
    "lat": -64.32,
    "alternate": null
  },
  {
    "name": "Andoany",
    "country": "Madagascar",
    "region": "Madagascar -- 47350",
    "lon": 48.3,
    "lat": -13.4,
    "alternate": null
  },
  {
    "name": "Angra Do Heroismo",
    "country": "Portugal",
    "region": "Acores -- 38060",
    "lon": -27.22,
    "lat": 38.65,
    "alternate": null
  },
  {
    "name": "Angra Dos Reis",
    "country": "Brazil",
    "region": "Brazil SE Coast -- 12700",
    "lon": -44.32,
    "lat": -23.02,
    "alternate": null
  },
  {
    "name": "Annapolis",
    "country": "United States",
    "region": "United States E Coast -- 6585",
    "lon": -76.48,
    "lat": 38.98,
    "alternate": null
  },
  {
    "name": "Anse Tembladora",
    "country": "Trinidad and Tobago",
    "region": "Trinidad -- 11705",
    "lon": -61.58,
    "lat": 10.68,
    "alternate": null
  },
  {
    "name": "Antalya Offshore Terminal",
    "country": "Turkey",
    "region": "Turkey Asia -- 44360",
    "lon": 30.6,
    "lat": 36.82,
    "alternate": null
  },
  {
    "name": "Antibes",
    "country": "France",
    "region": "France South Coast -- 38710",
    "lon": 7.13,
    "lat": 43.58,
    "alternate": null
  },
  {
    "name": "Antilla",
    "country": "Cuba",
    "region": "Cuba North Coast -- 10030",
    "lon": -75.73,
    "lat": 20.83,
    "alternate": null
  },
  {
    "name": "Antioch",
    "country": "United States",
    "region": "United States W Coast -- 16000",
    "lon": -121.8,
    "lat": 38.02,
    "alternate": null
  },
  {
    "name": "Antsohim Bondrona",
    "country": "Madagascar",
    "region": "Madagascar -- 47350",
    "lon": 48.83,
    "lat": -13.08,
    "alternate": null
  },
  {
    "name": "Anyer Lor",
    "country": "Indonesia",
    "region": "Jawa -- 50920",
    "lon": 105.92,
    "lat": -6.05,
    "alternate": null
  },
  {
    "name": "Anzio - Nettuno",
    "country": "Italy",
    "region": "Italy West Coast Cont -- 39730",
    "lon": 12.64,
    "lat": 41.45,
    "alternate": null
  },
  {
    "name": "Aokata",
    "country": "Japan",
    "region": "Japan -- 61100",
    "lon": 129.07,
    "lat": 32.98,
    "alternate": null
  },
  {
    "name": "Aomori Ko",
    "country": "Japan",
    "region": "Japan -- 61100",
    "lon": 140.75,
    "lat": 40.83,
    "alternate": null
  },
  {
    "name": "Apalachicola",
    "country": "United States",
    "region": "US Gulf Coast -- 8650",
    "lon": -84.98,
    "lat": 29.72,
    "alternate": null
  },
  {
    "name": "Aparri",
    "country": "Philippines",
    "region": "Philippine Islands -- 57960",
    "lon": 121.63,
    "lat": 18.37,
    "alternate": null
  },
  {
    "name": "Apia",
    "country": "Samoa",
    "region": "Somoa Western -- 55665",
    "lon": -171.77,
    "lat": -13.82,
    "alternate": null
  },
  {
    "name": "Apra Harbor",
    "country": "Guam",
    "region": "Guam -- 56545",
    "lon": 144.62,
    "lat": 13.45,
    "alternate": null
  },
  {
    "name": "Aratu",
    "country": "Brazil",
    "region": "Brazil SE Coast -- 12700",
    "lon": -38.5,
    "lat": -12.78,
    "alternate": null
  },
  {
    "name": "Arbatax",
    "country": "Italy",
    "region": "Sardegna -- 39130",
    "lon": 9.7,
    "lat": 39.93,
    "alternate": null
  },
  {
    "name": "Ardalstangen",
    "country": "Norway",
    "region": "Norway -- 20620",
    "lon": 7.7,
    "lat": 61.23,
    "alternate": null
  },
  {
    "name": "Ardglass",
    "country": "United Kingdom",
    "region": "Northern Ireland -- 33630",
    "lon": -5.62,
    "lat": 54.27,
    "alternate": null
  },
  {
    "name": "Ardjuna Oil Field",
    "country": "Indonesia",
    "region": "Indonesia -- 50020",
    "lon": 107.72,
    "lat": -5.88,
    "alternate": null
  },
  {
    "name": "Ardrishaig",
    "country": "United Kingdom",
    "region": "Scotland West Coast -- 32790",
    "lon": -5.45,
    "lat": 56.02,
    "alternate": null
  },
  {
    "name": "Ardrossan",
    "country": "United Kingdom",
    "region": "Scotland West Coast -- 32790",
    "lon": -4.82,
    "lat": 55.65,
    "alternate": null
  },
  {
    "name": "Ardrossan",
    "country": "Australia",
    "region": "Australia -- 53290",
    "lon": 137.92,
    "lat": -34.43,
    "alternate": null
  },
  {
    "name": "Arendal",
    "country": "Norway",
    "region": "Norway -- 20620",
    "lon": 8.78,
    "lat": 58.45,
    "alternate": null
  },
  {
    "name": "Argentia",
    "country": "Canada",
    "region": "Newfoundland S Coast -- 1680",
    "lon": -53.98,
    "lat": 47.3,
    "alternate": null
  },
  {
    "name": "Argostolion",
    "country": "Greece",
    "region": "Greece West Coast -- 41710",
    "lon": 20.52,
    "lat": 38.18,
    "alternate": null
  },
  {
    "name": "Arichat Harbour",
    "country": "Canada",
    "region": "Cape Breton Island -- 5860",
    "lon": -61.02,
    "lat": 45.52,
    "alternate": null
  },
  {
    "name": "Arnold's Cove",
    "country": "Canada",
    "region": "Newfoundland S Coast -- 1680",
    "lon": -53.98,
    "lat": 47.76,
    "alternate": null
  },
  {
    "name": "Arroyo",
    "country": "Puerto Rico",
    "region": "Puerto Rico -- 11080",
    "lon": -66.07,
    "lat": 17.97,
    "alternate": null
  },
  {
    "name": "Arzew",
    "country": "Algeria",
    "region": "Algeria -- 45470",
    "lon": -0.3,
    "lat": 35.85,
    "alternate": null
  },
  {
    "name": "Arzew El Djedid",
    "country": "Algeria",
    "region": "Algeria -- 45470",
    "lon": -0.25,
    "lat": 35.82,
    "alternate": null
  },
  {
    "name": "Ash Shihr Oil Terminal",
    "country": "Yemen",
    "region": "Yemen Sanaa -- 48195",
    "lon": 49.48,
    "lat": 14.7,
    "alternate": null
  },
  {
    "name": "Ashdod",
    "country": "Israel",
    "region": "Israel -- 45060",
    "lon": 34.65,
    "lat": 31.82,
    "alternate": null
  },
  {
    "name": "Ashqelon",
    "country": "Israel",
    "region": "Israel -- 45060",
    "lon": 34.5,
    "lat": 31.67,
    "alternate": null
  },
  {
    "name": "Ashtabula",
    "country": "United States",
    "region": "US Lake Erie -- 3400",
    "lon": -80.8,
    "lat": 41.9,
    "alternate": null
  },
  {
    "name": "Ashtart Oil Terminal",
    "country": "Tunisia",
    "region": "Tunisia -- 45360",
    "lon": 11.38,
    "lat": 34.28,
    "alternate": null
  },
  {
    "name": "Assens",
    "country": "Denmark",
    "region": "Fyn -- 29820",
    "lon": 9.88,
    "lat": 55.27,
    "alternate": null
  },
  {
    "name": "Astakos",
    "country": "Greece",
    "region": "Greece East Coast -- 42010",
    "lon": 21.1,
    "lat": 38.48,
    "alternate": null
  },
  {
    "name": "Astoria",
    "country": "United States",
    "region": "United States W Coast -- 16000",
    "lon": -123.83,
    "lat": 46.2,
    "alternate": null
  },
  {
    "name": "Atlantic City",
    "country": "United States",
    "region": "United States E Coast -- 6585",
    "lon": -74.42,
    "lat": 39.37,
    "alternate": null
  },
  {
    "name": "Atsumi",
    "country": "Japan",
    "region": "Japan -- 61100",
    "lon": 137.07,
    "lat": 34.67,
    "alternate": null
  },
  {
    "name": "Attu",
    "country": "Greenland",
    "region": "Greenland  West Coast -- 545",
    "lon": -53.73,
    "lat": 67.95,
    "alternate": null
  },
  {
    "name": "Atuona",
    "country": "French Polynesia",
    "region": "Iles Marquises -- 56000",
    "lon": -139.03,
    "lat": -9.82,
    "alternate": null
  },
  {
    "name": "Au Sable",
    "country": "United States",
    "region": "US Lake Huron -- 4300",
    "lon": -83.32,
    "lat": 44.4,
    "alternate": null
  },
  {
    "name": "Auckland",
    "country": "New Zealand",
    "region": "New Zealand N Island -- 54990",
    "lon": 174.77,
    "lat": -36.85,
    "alternate": null
  },
  {
    "name": "Augusta",
    "country": "United States",
    "region": "United States E Coast -- 6585",
    "lon": -69.77,
    "lat": 44.32,
    "alternate": null
  },
  {
    "name": "Augustenborg",
    "country": "Denmark",
    "region": "Jylland -- 30020",
    "lon": 9.87,
    "lat": 54.95,
    "alternate": null
  },
  {
    "name": "Aultbea",
    "country": "United Kingdom",
    "region": "Scotland West Coast -- 32790",
    "lon": -5.58,
    "lat": 57.83,
    "alternate": null
  },
  {
    "name": "Avalon",
    "country": "United States",
    "region": "United States W Coast -- 16000",
    "lon": -118.32,
    "lat": 33.35,
    "alternate": null
  },
  {
    "name": "Aveiro",
    "country": "Portugal",
    "region": "Portugal -- 37930",
    "lon": -8.65,
    "lat": 40.65,
    "alternate": null
  },
  {
    "name": "Aviles",
    "country": "Spain",
    "region": "Spain N Coast -- 37270",
    "lon": -5.93,
    "lat": 43.6,
    "alternate": null
  },
  {
    "name": "Avonmouth",
    "country": "United Kingdom",
    "region": "England SW Coast -- 35030",
    "lon": -2.72,
    "lat": 51.5,
    "alternate": null
  },
  {
    "name": "Ayios Nikolaos",
    "country": "Greece",
    "region": "Kriti -- 43080",
    "lon": 25.72,
    "lat": 35.2,
    "alternate": null
  },
  {
    "name": "Ayr",
    "country": "United Kingdom",
    "region": "Scotland West Coast -- 32790",
    "lon": -4.63,
    "lat": 55.47,
    "alternate": null
  },
  {
    "name": "Az Zawiya",
    "country": "Libya",
    "region": "Libya -- 45200",
    "lon": 12.72,
    "lat": 32.8,
    "alternate": null
  },
  {
    "name": "Azov",
    "country": "Russia",
    "region": "Russia -- 44030",
    "lon": 39.43,
    "lat": 47.1,
    "alternate": null
  },
  {
    "name": "Baddeck Harbour",
    "country": "Canada",
    "region": "Cape Breton Island -- 5860",
    "lon": -60.75,
    "lat": 46.1,
    "alternate": null
  },
  {
    "name": "Bagnoli",
    "country": "Italy",
    "region": "Italy West Coast Cont -- 39730",
    "lon": 14.16,
    "lat": 40.81,
    "alternate": null
  },
  {
    "name": "Bahia Blanca",
    "country": "Argentina",
    "region": "Argentina -- 13310",
    "lon": -62.27,
    "lat": -38.78,
    "alternate": null
  },
  {
    "name": "Bahia De Fajardo",
    "country": "Puerto Rico",
    "region": "Puerto Rico -- 11080",
    "lon": -65.63,
    "lat": 18.33,
    "alternate": null
  },
  {
    "name": "Bahia De Matarani",
    "country": "Peru",
    "region": "Peru -- 14830",
    "lon": -72.12,
    "lat": -17.0,
    "alternate": null
  },
  {
    "name": "Bahia De Pertigalete",
    "country": "Venezuela",
    "region": "Venezuela -- 11950",
    "lon": -64.57,
    "lat": 10.23,
    "alternate": null
  },
  {
    "name": "Bahia De Valdivia",
    "country": "Chile",
    "region": "Chile -- 14070",
    "lon": -73.25,
    "lat": -39.8,
    "alternate": null
  },
  {
    "name": "Bahia De Valparaiso",
    "country": "Chile",
    "region": "Chile -- 14070",
    "lon": -71.62,
    "lat": -33.03,
    "alternate": null
  },
  {
    "name": "Bahia Herradura Guayacan",
    "country": "Chile",
    "region": "Chile -- 14070",
    "lon": -71.37,
    "lat": -29.97,
    "alternate": null
  },
  {
    "name": "Bahia Honda",
    "country": "Cuba",
    "region": "",
    "lon": -83.17,
    "lat": 22.97,
    "alternate": null
  },
  {
    "name": "Bahia Quintero (Ventanas)",
    "country": "Chile",
    "region": "Chile -- 14070",
    "lon": -71.53,
    "lat": -32.77,
    "alternate": null
  },
  {
    "name": "Bahia San Vicente",
    "country": "Chile",
    "region": "Chile -- 14070",
    "lon": -73.17,
    "lat": -36.73,
    "alternate": null
  },
  {
    "name": "Baia",
    "country": "Italy",
    "region": "",
    "lon": 14.07,
    "lat": 40.82,
    "alternate": null
  },
  {
    "name": "Baie De Kouaoua",
    "country": "New Caledonia",
    "region": "New Caledonia -- 57260",
    "lon": 165.82,
    "lat": -21.38,
    "alternate": null
  },
  {
    "name": "Baie Du Marigot",
    "country": "France",
    "region": "St Martin -- 11355",
    "lon": -63.08,
    "lat": 18.07,
    "alternate": null
  },
  {
    "name": "Baie Ugue",
    "country": "New Caledonia",
    "region": "New Caledonia -- 57260",
    "lon": 165.55,
    "lat": -21.15,
    "alternate": null
  },
  {
    "name": "Baie Verte",
    "country": "Canada",
    "region": "Newfoundland  E Coast -- 1410",
    "lon": -56.2,
    "lat": 49.92,
    "alternate": null
  },
  {
    "name": "Baie des Escoumins",
    "country": "Canada",
    "region": "Canada St Lawrence R -- 1930",
    "lon": -69.39,
    "lat": 48.35,
    "alternate": null
  },
  {
    "name": "Bais",
    "country": "Philippines",
    "region": "Philippine Islands -- 57960",
    "lon": 123.12,
    "lat": 9.6,
    "alternate": null
  },
  {
    "name": "Bajo Grande",
    "country": "Venezuela",
    "region": "Venezuela -- 11950",
    "lon": -71.63,
    "lat": 10.52,
    "alternate": null
  },
  {
    "name": "Bakapit",
    "country": "Malaysia",
    "region": "Malaysia -- 51647",
    "lon": 118.58,
    "lat": 4.95,
    "alternate": null
  },
  {
    "name": "Balaklava",
    "country": "Ukraine",
    "region": "Ukraine -- 43620",
    "lon": 33.6,
    "lat": 44.5,
    "alternate": null
  },
  {
    "name": "Balboa",
    "country": "Panama",
    "region": "Panama West Coast -- 15380",
    "lon": -79.57,
    "lat": 8.95,
    "alternate": null
  },
  {
    "name": "Baleshwar",
    "country": "India",
    "region": "India East Coast -- 49310",
    "lon": 86.95,
    "lat": 21.48,
    "alternate": null
  },
  {
    "name": "Balhaf",
    "country": "Yemen",
    "region": "Yemen Sanaa -- 48195",
    "lon": 48.18,
    "lat": 13.97,
    "alternate": null
  },
  {
    "name": "Balikpapan",
    "country": "Indonesia",
    "region": "Indonesia - Borneo -- 51760",
    "lon": 116.82,
    "lat": -1.25,
    "alternate": null
  },
  {
    "name": "Ballina",
    "country": "Australia",
    "region": "Australia -- 53290",
    "lon": 153.57,
    "lat": -28.87,
    "alternate": null
  },
  {
    "name": "Ballstad",
    "country": "Norway",
    "region": "Norway -- 20620",
    "lon": 13.7,
    "lat": 68.07,
    "alternate": null
  },
  {
    "name": "Baltimore",
    "country": "United States",
    "region": "United States E Coast -- 6585",
    "lon": -76.58,
    "lat": 39.27,
    "alternate": null
  },
  {
    "name": "Bamberton",
    "country": "Canada",
    "region": "Canada West Coast -- 18080",
    "lon": -123.52,
    "lat": 48.55,
    "alternate": null
  },
  {
    "name": "Banana",
    "country": "Congo (Kinshasa)",
    "region": "Congo -- 46500",
    "lon": 12.38,
    "lat": -5.98,
    "alternate": null
  },
  {
    "name": "Bandar Seri Begawan",
    "country": "Brunei",
    "region": "Brunei -- 51610",
    "lon": 114.88,
    "lat": 4.88,
    "alternate": null
  },
  {
    "name": "Bandar Taheri Offshore Terminal",
    "country": "Iran",
    "region": "Iran -- 48410",
    "lon": 52.35,
    "lat": 27.65,
    "alternate": null
  },
  {
    "name": "Bandar-E Mahshahr",
    "country": "Iran",
    "region": "Iran -- 48410",
    "lon": 49.18,
    "lat": 30.47,
    "alternate": null
  },
  {
    "name": "Bandar-E Shahid Rejaie",
    "country": "Iran",
    "region": "Iran -- 48410",
    "lon": 56.07,
    "lat": 27.1,
    "alternate": null
  },
  {
    "name": "Bandholm",
    "country": "Denmark",
    "region": "Lolland -- 29650",
    "lon": 11.5,
    "lat": 54.83,
    "alternate": null
  },
  {
    "name": "Bandon",
    "country": "United States",
    "region": "United States W Coast -- 16000",
    "lon": -124.42,
    "lat": 43.12,
    "alternate": null
  },
  {
    "name": "Banes",
    "country": "Cuba",
    "region": "",
    "lon": -75.72,
    "lat": 20.92,
    "alternate": null
  },
  {
    "name": "Bangor",
    "country": "United States",
    "region": "United States E Coast -- 6585",
    "lon": -68.77,
    "lat": 44.8,
    "alternate": null
  },
  {
    "name": "Bangor",
    "country": "United Kingdom",
    "region": "Scotland West Coast -- 32790",
    "lon": -5.67,
    "lat": 54.65,
    "alternate": null
  },
  {
    "name": "Baniyas",
    "country": "Syria",
    "region": "Syria -- 45000",
    "lon": 35.94,
    "lat": 35.19,
    "alternate": null
  },
  {
    "name": "Banjarmasin",
    "country": "Indonesia",
    "region": "Indonesia - Borneo -- 51760",
    "lon": 114.58,
    "lat": -3.33,
    "alternate": null
  },
  {
    "name": "Banten",
    "country": "Indonesia",
    "region": "Jawa -- 50920",
    "lon": 105.97,
    "lat": -6.02,
    "alternate": null
  },
  {
    "name": "Bar",
    "country": "Montenegro",
    "region": "Serbia and Montenegro -- 41560",
    "lon": 19.08,
    "lat": 42.08,
    "alternate": null
  },
  {
    "name": "Bar Harbor",
    "country": "United States",
    "region": "United States E Coast -- 6585",
    "lon": -68.2,
    "lat": 44.38,
    "alternate": null
  },
  {
    "name": "Baracoa",
    "country": "Cuba",
    "region": "",
    "lon": -74.5,
    "lat": 20.35,
    "alternate": null
  },
  {
    "name": "Baraga",
    "country": "United States",
    "region": "US Lake Superior -- 5230",
    "lon": -88.48,
    "lat": 46.78,
    "alternate": null
  },
  {
    "name": "Barbers Point Terminal",
    "country": "United States",
    "region": "United States -- 56045",
    "lon": -158.1,
    "lat": 21.27,
    "alternate": null
  },
  {
    "name": "Barcelona",
    "country": "Spain",
    "region": "Spain SE Coast -- 38340",
    "lon": 2.17,
    "lat": 41.35,
    "alternate": null
  },
  {
    "name": "Barentsburg",
    "country": "Svalbard",
    "region": "Svalbard -- 20540",
    "lon": 14.2,
    "lat": 78.06,
    "alternate": null
  },
  {
    "name": "Bari",
    "country": "Italy",
    "region": "Italy East Coast -- 40390",
    "lon": 16.85,
    "lat": 41.15,
    "alternate": null
  },
  {
    "name": "Barnegat",
    "country": "United States",
    "region": "United States E Coast -- 6585",
    "lon": -74.1,
    "lat": 39.77,
    "alternate": null
  },
  {
    "name": "Barranquilla",
    "country": "Colombia",
    "region": "Colombia North Coast -- 11860",
    "lon": -74.77,
    "lat": 10.97,
    "alternate": null
  },
  {
    "name": "Barrow",
    "country": "United States",
    "region": "Alaska Continued -- 20185",
    "lon": -156.78,
    "lat": 71.28,
    "alternate": null
  },
  {
    "name": "Barrow In Furness",
    "country": "United Kingdom",
    "region": "England West Coast -- 34580",
    "lon": -3.23,
    "lat": 54.12,
    "alternate": null
  },
  {
    "name": "Barry",
    "country": "United Kingdom",
    "region": "Wales -- 34710",
    "lon": -3.27,
    "lat": 51.4,
    "alternate": null
  },
  {
    "name": "Basarabi",
    "country": "Romania",
    "region": "Romania -- 43540",
    "lon": 28.43,
    "lat": 44.17,
    "alternate": null
  },
  {
    "name": "Basco",
    "country": "Philippines",
    "region": "Philippine Islands -- 57960",
    "lon": 121.97,
    "lat": 20.45,
    "alternate": null
  },
  {
    "name": "Basilian City (Isabela)",
    "country": "Philippines",
    "region": "Philippine Islands -- 57960",
    "lon": 121.97,
    "lat": 6.72,
    "alternate": null
  },
  {
    "name": "Bass Harbor",
    "country": "United States",
    "region": "United States E Coast -- 6585",
    "lon": -68.35,
    "lat": 44.23,
    "alternate": null
  },
  {
    "name": "Basse Terre",
    "country": "Guadeloupe",
    "region": "Guadeloupe -- 11445",
    "lon": -61.73,
    "lat": 16.0,
    "alternate": null
  },
  {
    "name": "Bassein",
    "country": "Burma",
    "region": "Burma (Myanmar) -- 49610",
    "lon": 94.73,
    "lat": 16.78,
    "alternate": null
  },
  {
    "name": "Basseterre",
    "country": "Saint Kitts and Nevis",
    "region": "Saint Kitts and Nevis -- 11392",
    "lon": -62.72,
    "lat": 17.3,
    "alternate": null
  },
  {
    "name": "Bastia",
    "country": "France",
    "region": "Corse -- 39040",
    "lon": 9.45,
    "lat": 42.7,
    "alternate": null
  },
  {
    "name": "Bata",
    "country": "Equatorial Guinea",
    "region": "Equatorial Guinea -- 46300",
    "lon": 9.77,
    "lat": 1.87,
    "alternate": null
  },
  {
    "name": "Batangas City",
    "country": "Philippines",
    "region": "Philippine Islands -- 57960",
    "lon": 121.05,
    "lat": 13.75,
    "alternate": null
  },
  {
    "name": "Batchawana Bay",
    "country": "Canada",
    "region": "Canada Lake Superior -- 5120",
    "lon": -84.6,
    "lat": 46.92,
    "alternate": null
  },
  {
    "name": "Batemans Bay",
    "country": "Australia",
    "region": "Australia -- 53290",
    "lon": 150.17,
    "lat": -35.7,
    "alternate": null
  },
  {
    "name": "Bath",
    "country": "United States",
    "region": "United States E Coast -- 6585",
    "lon": -69.82,
    "lat": 43.92,
    "alternate": null
  },
  {
    "name": "Bathurst Harbour",
    "country": "Canada",
    "region": "New Brunswick -- 5555",
    "lon": -65.63,
    "lat": 47.63,
    "alternate": null
  },
  {
    "name": "Baton Rouge",
    "country": "United States",
    "region": "US Gulf Coast -- 8650",
    "lon": -91.18,
    "lat": 30.45,
    "alternate": null
  },
  {
    "name": "Batsfjord",
    "country": "Norway",
    "region": "Norway -- 20620",
    "lon": 29.74,
    "lat": 70.63,
    "alternate": null
  },
  {
    "name": "Batticaloa Roads",
    "country": "Sri Lanka",
    "region": "Sri Lanka -- 49210",
    "lon": 81.68,
    "lat": 7.77,
    "alternate": null
  },
  {
    "name": "Batumi",
    "country": "Georgia",
    "region": "Georgia -- 44275",
    "lon": 41.65,
    "lat": 41.65,
    "alternate": null
  },
  {
    "name": "Bay Bulls",
    "country": "Canada",
    "region": "Newfoundland  E Coast -- 1410",
    "lon": -52.82,
    "lat": 47.32,
    "alternate": null
  },
  {
    "name": "Bay City",
    "country": "United States",
    "region": "US Lake Huron -- 4300",
    "lon": -83.87,
    "lat": 43.6,
    "alternate": null
  },
  {
    "name": "Bay City",
    "country": "United States",
    "region": "United States W Coast -- 16000",
    "lon": -124.07,
    "lat": 46.87,
    "alternate": null
  },
  {
    "name": "Bay Of Pillars",
    "country": "United States",
    "region": "Alaska -- 19080",
    "lon": -134.23,
    "lat": 56.6,
    "alternate": null
  },
  {
    "name": "Bay Roberts",
    "country": "Canada",
    "region": "Newfoundland  E Coast -- 1410",
    "lon": -53.26,
    "lat": 47.59,
    "alternate": null
  },
  {
    "name": "Baybay",
    "country": "Philippines",
    "region": "Philippine Islands -- 57960",
    "lon": 124.8,
    "lat": 10.68,
    "alternate": null
  },
  {
    "name": "Bayboro",
    "country": "United States",
    "region": "United States E Coast -- 6585",
    "lon": -76.77,
    "lat": 35.15,
    "alternate": null
  },
  {
    "name": "Bayfield",
    "country": "United States",
    "region": "US Lake Superior -- 5230",
    "lon": -90.82,
    "lat": 46.8,
    "alternate": null
  },
  {
    "name": "Bayonne",
    "country": "France",
    "region": "France West Coast -- 36450",
    "lon": -1.47,
    "lat": 43.5,
    "alternate": null
  },
  {
    "name": "Bayonne",
    "country": "United States",
    "region": "United States E Coast -- 6585",
    "lon": -74.1,
    "lat": 40.68,
    "alternate": null
  },
  {
    "name": "Baytown",
    "country": "United States",
    "region": "US Gulf Coast -- 8650",
    "lon": -95.02,
    "lat": 29.73,
    "alternate": null
  },
  {
    "name": "Bayuquan",
    "country": "China",
    "region": "China Continued -- 59850",
    "lon": 122.08,
    "lat": 40.3,
    "alternate": null
  },
  {
    "name": "Bayway",
    "country": "United States",
    "region": "United States E Coast -- 6585",
    "lon": -74.2,
    "lat": 40.63,
    "alternate": null
  },
  {
    "name": "Bear Island",
    "country": "United States",
    "region": "Alaska -- 19080",
    "lon": -152.68,
    "lat": 58.45,
    "alternate": null
  },
  {
    "name": "Beaufort",
    "country": "United States",
    "region": "United States E Coast -- 6585",
    "lon": -76.67,
    "lat": 34.72,
    "alternate": null
  },
  {
    "name": "Beaufort",
    "country": "United States",
    "region": "United States E Coast -- 6585",
    "lon": -80.67,
    "lat": 32.43,
    "alternate": null
  },
  {
    "name": "Beauharnois",
    "country": "Canada",
    "region": "Canada St Lawrence R -- 2545",
    "lon": -73.88,
    "lat": 45.32,
    "alternate": null
  },
  {
    "name": "Beaumont",
    "country": "United States",
    "region": "US Gulf Coast -- 8650",
    "lon": -94.08,
    "lat": 30.08,
    "alternate": null
  },
  {
    "name": "Beauty Point",
    "country": "Australia",
    "region": "Tasmania -- 54700",
    "lon": 146.82,
    "lat": -41.15,
    "alternate": null
  },
  {
    "name": "Beira",
    "country": "Mozambique",
    "region": "Mozambique -- 46860",
    "lon": 34.83,
    "lat": -19.83,
    "alternate": null
  },
  {
    "name": "Bekkeri",
    "country": "Estonia",
    "region": "",
    "lon": 24.67,
    "lat": 59.45,
    "alternate": null
  },
  {
    "name": "Belanak Field Terminal",
    "country": "Indonesia",
    "region": "Kepulauan Anambas -- 51480",
    "lon": 106.25,
    "lat": 4.15,
    "alternate": null
  },
  {
    "name": "Belawan",
    "country": "Indonesia",
    "region": "Sumatera -- 50515",
    "lon": 98.68,
    "lat": 3.78,
    "alternate": null
  },
  {
    "name": "Belekeri",
    "country": "India",
    "region": "India West Coast -- 48610",
    "lon": 74.27,
    "lat": 14.7,
    "alternate": null
  },
  {
    "name": "Belfast",
    "country": "United States",
    "region": "United States E Coast -- 6585",
    "lon": -69.0,
    "lat": 44.42,
    "alternate": null
  },
  {
    "name": "Belfast",
    "country": "United Kingdom",
    "region": "Northern Ireland -- 33630",
    "lon": -5.9,
    "lat": 54.62,
    "alternate": null
  },
  {
    "name": "Belgorod-Dnestrovsky",
    "country": "Ukraine",
    "region": "Ukraine -- 43620",
    "lon": 30.37,
    "lat": 46.18,
    "alternate": null
  },
  {
    "name": "Belhaven",
    "country": "United States",
    "region": "United States E Coast -- 6585",
    "lon": -76.62,
    "lat": 35.62,
    "alternate": null
  },
  {
    "name": "Belida Marine Terminal",
    "country": "Indonesia",
    "region": "Kepulauan Anambas -- 51480",
    "lon": 105.13,
    "lat": 4.13,
    "alternate": null
  },
  {
    "name": "Belize City",
    "country": "Belize",
    "region": "Belize -- 9580",
    "lon": -88.18,
    "lat": 17.5,
    "alternate": null
  },
  {
    "name": "Belkofski",
    "country": "United States",
    "region": "Alaska -- 19080",
    "lon": -162.03,
    "lat": 55.08,
    "alternate": null
  },
  {
    "name": "Bella Bella",
    "country": "Canada",
    "region": "Canada West Coast -- 18080",
    "lon": -128.15,
    "lat": 52.17,
    "alternate": null
  },
  {
    "name": "Bella Coola",
    "country": "Canada",
    "region": "Canada West Coast -- 18080",
    "lon": -126.8,
    "lat": 52.37,
    "alternate": null
  },
  {
    "name": "Belledune Harbor",
    "country": "Canada",
    "region": "New Brunswick -- 5555",
    "lon": -65.83,
    "lat": 47.9,
    "alternate": null
  },
  {
    "name": "Belleville",
    "country": "Canada",
    "region": "Canada Lake Ontario -- 2820",
    "lon": -77.4,
    "lat": 44.15,
    "alternate": null
  },
  {
    "name": "Bellingham",
    "country": "United States",
    "region": "United States W Coast -- 16000",
    "lon": -122.5,
    "lat": 48.75,
    "alternate": null
  },
  {
    "name": "Benchamas Terminal",
    "country": "Thailand",
    "region": "Thailand -- 57431",
    "lon": 101.25,
    "lat": 10.52,
    "alternate": null
  },
  {
    "name": "Bengkalis",
    "country": "Indonesia",
    "region": "Sumatera -- 50515",
    "lon": 102.1,
    "lat": 1.47,
    "alternate": null
  },
  {
    "name": "Beni Saf",
    "country": "Algeria",
    "region": "Algeria -- 45470",
    "lon": -1.38,
    "lat": 35.3,
    "alternate": null
  },
  {
    "name": "Benicia",
    "country": "United States",
    "region": "United States W Coast -- 16000",
    "lon": -122.15,
    "lat": 38.05,
    "alternate": null
  },
  {
    "name": "Benti",
    "country": "Guinea",
    "region": "Guinea -- 45842",
    "lon": -13.2,
    "lat": 9.17,
    "alternate": null
  },
  {
    "name": "Beppu",
    "country": "Japan",
    "region": "Japan -- 61100",
    "lon": 131.52,
    "lat": 33.32,
    "alternate": null
  },
  {
    "name": "Berbera",
    "country": "Somalia",
    "region": "Somalia -- 47810",
    "lon": 45.02,
    "lat": 10.45,
    "alternate": null
  },
  {
    "name": "Berg",
    "country": "Norway",
    "region": "Norway -- 20620",
    "lon": 12.2,
    "lat": 65.37,
    "alternate": null
  },
  {
    "name": "Bergen",
    "country": "Norway",
    "region": "Norway -- 20620",
    "lon": 5.3,
    "lat": 60.4,
    "alternate": null
  },
  {
    "name": "Bergh Cove",
    "country": "Canada",
    "region": "Canada West Coast -- 18080",
    "lon": -127.62,
    "lat": 50.53,
    "alternate": null
  },
  {
    "name": "Bergkvara",
    "country": "Sweden",
    "region": "Sweden -- 23860",
    "lon": 16.1,
    "lat": 56.38,
    "alternate": null
  },
  {
    "name": "Berkeley",
    "country": "United States",
    "region": "United States W Coast -- 16000",
    "lon": -122.3,
    "lat": 37.87,
    "alternate": null
  },
  {
    "name": "Berlevag",
    "country": "Norway",
    "region": "Norway -- 20620",
    "lon": 29.11,
    "lat": 70.86,
    "alternate": null
  },
  {
    "name": "Bermeo",
    "country": "Spain",
    "region": "Spain N Coast -- 37270",
    "lon": -2.72,
    "lat": 43.42,
    "alternate": null
  },
  {
    "name": "Bernard Harbor",
    "country": "United States",
    "region": "Alaska Continued -- 20185",
    "lon": -143.63,
    "lat": 70.13,
    "alternate": null
  },
  {
    "name": "Berwick-Upon-Tweed",
    "country": "United Kingdom",
    "region": "England East Coast -- 31330",
    "lon": -2.0,
    "lat": 55.77,
    "alternate": null
  },
  {
    "name": "Beshayer Oil Terminal",
    "country": "Sudan",
    "region": "Sudan -- 47910",
    "lon": 37.32,
    "lat": 19.4,
    "alternate": null
  },
  {
    "name": "Bethel",
    "country": "United States",
    "region": "Alaska Continued -- 20185",
    "lon": -161.72,
    "lat": 60.82,
    "alternate": null
  },
  {
    "name": "Beverly",
    "country": "United States",
    "region": "United States E Coast -- 6585",
    "lon": -70.88,
    "lat": 42.53,
    "alternate": null
  },
  {
    "name": "Bhavnagar",
    "country": "India",
    "region": "India West Coast -- 48610",
    "lon": 72.23,
    "lat": 21.77,
    "alternate": null
  },
  {
    "name": "Bialla",
    "country": "Papua New Guinea",
    "region": "Bismarck Archipelago -- 56700",
    "lon": 150.98,
    "lat": -5.3,
    "alternate": null
  },
  {
    "name": "Bideford",
    "country": "United Kingdom",
    "region": "England SW Coast -- 35030",
    "lon": -4.2,
    "lat": 51.03,
    "alternate": null
  },
  {
    "name": "Big Creek",
    "country": "Belize",
    "region": "Belize -- 9580",
    "lon": -88.4,
    "lat": 16.52,
    "alternate": null
  },
  {
    "name": "Big Port Walter",
    "country": "United States",
    "region": "Alaska -- 19080",
    "lon": -134.73,
    "lat": 56.38,
    "alternate": null
  },
  {
    "name": "Bildudalur",
    "country": "Iceland",
    "region": "Iceland  West Coast -- 60",
    "lon": -23.6,
    "lat": 65.68,
    "alternate": null
  },
  {
    "name": "Biloxi",
    "country": "United States",
    "region": "US Gulf Coast -- 8650",
    "lon": -88.88,
    "lat": 30.38,
    "alternate": null
  },
  {
    "name": "Bintangor",
    "country": "Malaysia",
    "region": "Malaysia -- 51548",
    "lon": 111.63,
    "lat": 2.17,
    "alternate": null
  },
  {
    "name": "Bintulu Port",
    "country": "Malaysia",
    "region": "Sarawak -- 51550",
    "lon": 113.07,
    "lat": 3.27,
    "alternate": null
  },
  {
    "name": "Bird Port",
    "country": "United Kingdom",
    "region": "Wales -- 34710",
    "lon": -2.97,
    "lat": 51.57,
    "alternate": null
  },
  {
    "name": "Bisceglie",
    "country": "Italy",
    "region": "",
    "lon": 16.51,
    "lat": 41.25,
    "alternate": null
  },
  {
    "name": "Bissau",
    "country": "Guinea-Bissau",
    "region": "Guinea Bissau -- 45833",
    "lon": -15.63,
    "lat": 11.87,
    "alternate": null
  },
  {
    "name": "Bitung",
    "country": "Indonesia",
    "region": "Sulawesi -- 51970",
    "lon": 125.18,
    "lat": 1.43,
    "alternate": null
  },
  {
    "name": "Blaine",
    "country": "United States",
    "region": "United States W Coast -- 16000",
    "lon": -122.75,
    "lat": 49.0,
    "alternate": null
  },
  {
    "name": "Blanc Sablon",
    "country": "Canada",
    "region": "North Side -- 1871",
    "lon": -57.13,
    "lat": 51.42,
    "alternate": null
  },
  {
    "name": "Blanglancang",
    "country": "Indonesia",
    "region": "Indonesia -- 50020",
    "lon": 97.1,
    "lat": 5.23,
    "alternate": null
  },
  {
    "name": "Blaye",
    "country": "France",
    "region": "France West Coast -- 36450",
    "lon": -0.67,
    "lat": 45.13,
    "alternate": null
  },
  {
    "name": "Blind River",
    "country": "Canada",
    "region": "Canada Lake Huron -- 3640",
    "lon": -82.95,
    "lat": 46.18,
    "alternate": null
  },
  {
    "name": "Blyth",
    "country": "United Kingdom",
    "region": "England East Coast -- 31330",
    "lon": -1.5,
    "lat": 55.12,
    "alternate": null
  },
  {
    "name": "Bocas Del Toro",
    "country": "Panama",
    "region": "Panama East Coast -- 9820",
    "lon": -82.23,
    "lat": 9.33,
    "alternate": null
  },
  {
    "name": "Bodega Bay",
    "country": "United States",
    "region": "United States W Coast -- 16000",
    "lon": -123.05,
    "lat": 38.33,
    "alternate": null
  },
  {
    "name": "Bodo",
    "country": "Norway",
    "region": "Norway -- 20620",
    "lon": 14.36,
    "lat": 67.29,
    "alternate": null
  },
  {
    "name": "Bodrum",
    "country": "Turkey",
    "region": "Turkey Asia -- 44360",
    "lon": 27.43,
    "lat": 37.03,
    "alternate": null
  },
  {
    "name": "Bollstabruk",
    "country": "Sweden",
    "region": "Sweden Cont -- 24975",
    "lon": 17.7,
    "lat": 63.0,
    "alternate": null
  },
  {
    "name": "Bolungarvik",
    "country": "Iceland",
    "region": "Iceland  West Coast -- 60",
    "lon": -23.23,
    "lat": 66.17,
    "alternate": null
  },
  {
    "name": "Boma",
    "country": "Congo (Kinshasa)",
    "region": "Congo -- 46500",
    "lon": 13.05,
    "lat": -5.85,
    "alternate": null
  },
  {
    "name": "Bongkot Terminal",
    "country": "Thailand",
    "region": "Thailand -- 57431",
    "lon": 102.33,
    "lat": 8.05,
    "alternate": null
  },
  {
    "name": "Bonifacio",
    "country": "France",
    "region": "Corse -- 39040",
    "lon": 9.17,
    "lat": 41.38,
    "alternate": null
  },
  {
    "name": "Bonny Offshore Terminal",
    "country": "Nigeria",
    "region": "Nigeria -- 46120",
    "lon": 7.23,
    "lat": 4.18,
    "alternate": null
  },
  {
    "name": "Bontang Lng Terminal",
    "country": "Indonesia",
    "region": "Indonesia - Borneo -- 51760",
    "lon": 117.48,
    "lat": 0.1,
    "alternate": null
  },
  {
    "name": "Bonthe",
    "country": "Sierra Leone",
    "region": "Sierra Leone -- 45860",
    "lon": -12.5,
    "lat": 7.53,
    "alternate": null
  },
  {
    "name": "Boothbay Harbor",
    "country": "United States",
    "region": "United States E Coast -- 6585",
    "lon": -69.58,
    "lat": 43.87,
    "alternate": null
  },
  {
    "name": "Bordeaux",
    "country": "France",
    "region": "France West Coast -- 36450",
    "lon": -0.57,
    "lat": 44.87,
    "alternate": null
  },
  {
    "name": "Borusan Fertilizer Jetty",
    "country": "Turkey",
    "region": "Turkey Europe -- 43325",
    "lon": 29.1,
    "lat": 40.42,
    "alternate": null
  },
  {
    "name": "Boston",
    "country": "United States",
    "region": "United States E Coast -- 6585",
    "lon": -71.05,
    "lat": 42.35,
    "alternate": null
  },
  {
    "name": "Boston",
    "country": "United Kingdom",
    "region": "England East Coast -- 31330",
    "lon": -0.02,
    "lat": 52.97,
    "alternate": null
  },
  {
    "name": "Botas",
    "country": "Turkey",
    "region": "Turkey Asia -- 44360",
    "lon": 35.93,
    "lat": 36.88,
    "alternate": null
  },
  {
    "name": "Botas Dortyol Oil Terminal",
    "country": "Turkey",
    "region": "Turkey Asia -- 44360",
    "lon": 36.13,
    "lat": 36.87,
    "alternate": null
  },
  {
    "name": "Botas Natural Gas Terminal",
    "country": "Turkey",
    "region": "Turkey Asia -- 44360",
    "lon": 27.98,
    "lat": 41.0,
    "alternate": null
  },
  {
    "name": "Botwood",
    "country": "Canada",
    "region": "Newfoundland  E Coast -- 1410",
    "lon": -55.33,
    "lat": 49.13,
    "alternate": null
  },
  {
    "name": "Boulogne-Sur-Mer",
    "country": "France",
    "region": "France NW Coast -- 35720",
    "lon": 1.6,
    "lat": 50.73,
    "alternate": null
  },
  {
    "name": "Bouri Oil Field",
    "country": "Libya",
    "region": "Libya -- 45200",
    "lon": 12.65,
    "lat": 33.9,
    "alternate": null
  },
  {
    "name": "Bovallstrand",
    "country": "Sweden",
    "region": "Sweden -- 23860",
    "lon": 11.33,
    "lat": 58.48,
    "alternate": null
  },
  {
    "name": "Bowling",
    "country": "United Kingdom",
    "region": "Scotland West Coast -- 32790",
    "lon": -4.48,
    "lat": 55.93,
    "alternate": null
  },
  {
    "name": "Braefoot Bay Terminal",
    "country": "United Kingdom",
    "region": "Scotland East Coast -- 31870",
    "lon": -3.32,
    "lat": 56.03,
    "alternate": null
  },
  {
    "name": "Braila",
    "country": "Romania",
    "region": "Romania -- 43540",
    "lon": 27.98,
    "lat": 45.25,
    "alternate": null
  },
  {
    "name": "Brake",
    "country": "Germany",
    "region": "Germany -- 30650",
    "lon": 8.48,
    "lat": 53.33,
    "alternate": null
  },
  {
    "name": "Brannfors",
    "country": "Sweden",
    "region": "Sweden Cont -- 24975",
    "lon": 21.38,
    "lat": 65.02,
    "alternate": null
  },
  {
    "name": "Brass Oil Terminal",
    "country": "Nigeria",
    "region": "Nigeria -- 46120",
    "lon": 6.28,
    "lat": 4.07,
    "alternate": null
  },
  {
    "name": "Brattholmen",
    "country": "Norway",
    "region": "Norway -- 20620",
    "lon": 5.18,
    "lat": 60.35,
    "alternate": null
  },
  {
    "name": "Bredvik",
    "country": "Norway",
    "region": "Norway -- 20620",
    "lon": 22.13,
    "lat": 70.58,
    "alternate": null
  },
  {
    "name": "Bremen",
    "country": "Germany",
    "region": "Germany -- 30650",
    "lon": 8.77,
    "lat": 53.13,
    "alternate": null
  },
  {
    "name": "Bremerhaven",
    "country": "Germany",
    "region": "Germany -- 30650",
    "lon": 8.58,
    "lat": 53.53,
    "alternate": null
  },
  {
    "name": "Bremerton",
    "country": "United States",
    "region": "United States W Coast -- 16000",
    "lon": -122.65,
    "lat": 47.57,
    "alternate": null
  },
  {
    "name": "Brettesnes",
    "country": "Norway",
    "region": "Norway -- 20620",
    "lon": 14.85,
    "lat": 68.23,
    "alternate": null
  },
  {
    "name": "Brevik",
    "country": "Norway",
    "region": "Norway -- 20620",
    "lon": 9.7,
    "lat": 59.07,
    "alternate": null
  },
  {
    "name": "Bridgeport",
    "country": "United States",
    "region": "United States E Coast -- 6585",
    "lon": -73.18,
    "lat": 41.17,
    "alternate": null
  },
  {
    "name": "Bridgetown",
    "country": "Barbados",
    "region": "Barbados -- 11675",
    "lon": -59.63,
    "lat": 13.1,
    "alternate": null
  },
  {
    "name": "Bridgwater",
    "country": "United Kingdom",
    "region": "England SW Coast -- 35030",
    "lon": -3.0,
    "lat": 51.13,
    "alternate": null
  },
  {
    "name": "Bridlington",
    "country": "United Kingdom",
    "region": "England East Coast -- 31330",
    "lon": -0.18,
    "lat": 54.08,
    "alternate": null
  },
  {
    "name": "Bridport Harbour",
    "country": "United Kingdom",
    "region": "England South Coast -- 35220",
    "lon": -2.77,
    "lat": 50.72,
    "alternate": null
  },
  {
    "name": "Brighton",
    "country": "Trinidad and Tobago",
    "region": "Trinidad -- 11705",
    "lon": -61.63,
    "lat": 10.25,
    "alternate": null
  },
  {
    "name": "Brindisi",
    "country": "Italy",
    "region": "Italy East Coast -- 40390",
    "lon": 17.98,
    "lat": 40.65,
    "alternate": null
  },
  {
    "name": "Brisbane",
    "country": "Australia",
    "region": "Australia -- 53290",
    "lon": 153.03,
    "lat": -27.47,
    "alternate": null
  },
  {
    "name": "Bristol",
    "country": "United States",
    "region": "United States E Coast -- 6585",
    "lon": -71.27,
    "lat": 41.67,
    "alternate": null
  },
  {
    "name": "Bristol",
    "country": "United Kingdom",
    "region": "England SW Coast -- 35030",
    "lon": -2.63,
    "lat": 51.47,
    "alternate": null
  },
  {
    "name": "Bristol",
    "country": "United States",
    "region": "United States E Coast -- 6585",
    "lon": -74.85,
    "lat": 40.1,
    "alternate": null
  },
  {
    "name": "Brixham Harbour",
    "country": "United Kingdom",
    "region": "England South Coast -- 35220",
    "lon": -3.52,
    "lat": 50.4,
    "alternate": null
  },
  {
    "name": "Broadford Bay",
    "country": "United Kingdom",
    "region": "Scotland West Coast -- 32790",
    "lon": -5.88,
    "lat": 57.25,
    "alternate": null
  },
  {
    "name": "Brockville",
    "country": "Canada",
    "region": "Canada St Lawrence R -- 2545",
    "lon": -75.67,
    "lat": 44.58,
    "alternate": null
  },
  {
    "name": "Brofjorden",
    "country": "Sweden",
    "region": "Sweden -- 23860",
    "lon": 11.42,
    "lat": 58.36,
    "alternate": null
  },
  {
    "name": "Bronnoysund",
    "country": "Norway",
    "region": "Norway -- 20620",
    "lon": 12.2,
    "lat": 65.47,
    "alternate": null
  },
  {
    "name": "Bronte",
    "country": "Canada",
    "region": "Canada Lake Ontario -- 2820",
    "lon": -79.72,
    "lat": 43.4,
    "alternate": null
  },
  {
    "name": "Brooklyn",
    "country": "United States",
    "region": "United States E Coast -- 6585",
    "lon": -74.02,
    "lat": 40.67,
    "alternate": null
  },
  {
    "name": "Broome",
    "country": "Australia",
    "region": "Australia -- 53290",
    "lon": 122.23,
    "lat": -17.97,
    "alternate": null
  },
  {
    "name": "Brownsville",
    "country": "United States",
    "region": "US Gulf Coast -- 8650",
    "lon": -97.4,
    "lat": 25.95,
    "alternate": null
  },
  {
    "name": "Bruce Mines",
    "country": "Canada",
    "region": "Canada Lake Huron -- 3640",
    "lon": -83.78,
    "lat": 46.28,
    "alternate": null
  },
  {
    "name": "Bruges",
    "country": "Belgium",
    "region": "Belgium -- 31240",
    "lon": 3.22,
    "lat": 51.23,
    "alternate": null
  },
  {
    "name": "Brunsbuttel Canal Terminals",
    "country": "Germany",
    "region": "Germany -- 30650",
    "lon": 9.15,
    "lat": 53.9,
    "alternate": null
  },
  {
    "name": "Brunsbuttel Elbahafen",
    "country": "Germany",
    "region": "Germany -- 30650",
    "lon": 9.17,
    "lat": 53.88,
    "alternate": null
  },
  {
    "name": "Brunswick",
    "country": "United States",
    "region": "United States E Coast -- 6585",
    "lon": -81.5,
    "lat": 31.15,
    "alternate": null
  },
  {
    "name": "Bucksport",
    "country": "United States",
    "region": "United States E Coast -- 6585",
    "lon": -68.78,
    "lat": 44.57,
    "alternate": null
  },
  {
    "name": "Bud",
    "country": "Norway",
    "region": "Norway -- 20620",
    "lon": 6.92,
    "lat": 62.9,
    "alternate": null
  },
  {
    "name": "Buenaventura",
    "country": "Colombia",
    "region": "Colombia West Coast -- 15350",
    "lon": -77.07,
    "lat": 3.88,
    "alternate": null
  },
  {
    "name": "Buenos Aires",
    "country": "Argentina",
    "region": "Argentina -- 13310",
    "lon": -58.37,
    "lat": -34.6,
    "alternate": null
  },
  {
    "name": "Buffalo",
    "country": "United States",
    "region": "US Lake Erie -- 3400",
    "lon": -78.88,
    "lat": 42.88,
    "alternate": null
  },
  {
    "name": "Buffington",
    "country": "United States",
    "region": "US Lake Michigan -- 4570",
    "lon": -87.42,
    "lat": 41.63,
    "alternate": null
  },
  {
    "name": "Bugo",
    "country": "Philippines",
    "region": "Philippine Islands -- 57960",
    "lon": 124.75,
    "lat": 8.52,
    "alternate": null
  },
  {
    "name": "Bukhta Vanino",
    "country": "Russia",
    "region": "Russia -- 60530",
    "lon": 140.28,
    "lat": 49.08,
    "alternate": null
  },
  {
    "name": "Bunbury",
    "country": "Australia",
    "region": "Australia -- 53290",
    "lon": 115.63,
    "lat": -33.32,
    "alternate": null
  },
  {
    "name": "Burgeo",
    "country": "Canada",
    "region": "Newfoundland  W Coast -- 1800",
    "lon": -57.6,
    "lat": 47.62,
    "alternate": null
  },
  {
    "name": "Burghead",
    "country": "United Kingdom",
    "region": "Scotland East Coast -- 31870",
    "lon": -3.5,
    "lat": 57.7,
    "alternate": null
  },
  {
    "name": "Burlington",
    "country": "United States",
    "region": "United States E Coast -- 6585",
    "lon": -74.87,
    "lat": 40.08,
    "alternate": null
  },
  {
    "name": "Burnett Inlet",
    "country": "United States",
    "region": "Alaska -- 19080",
    "lon": -132.47,
    "lat": 56.07,
    "alternate": null
  },
  {
    "name": "Burnie",
    "country": "Australia",
    "region": "Tasmania -- 54700",
    "lon": 145.95,
    "lat": -41.05,
    "alternate": null
  },
  {
    "name": "Burntisland",
    "country": "United Kingdom",
    "region": "Scotland East Coast -- 31870",
    "lon": -3.23,
    "lat": 56.05,
    "alternate": null
  },
  {
    "name": "Burriana",
    "country": "Spain",
    "region": "Spain SE Coast -- 38340",
    "lon": -0.05,
    "lat": 39.88,
    "alternate": null
  },
  {
    "name": "Burutu",
    "country": "Nigeria",
    "region": "Nigeria -- 46120",
    "lon": 5.5,
    "lat": 5.35,
    "alternate": null
  },
  {
    "name": "Bushehr",
    "country": "Iran",
    "region": "Iran -- 48410",
    "lon": 50.83,
    "lat": 28.98,
    "alternate": null
  },
  {
    "name": "Busum",
    "country": "Germany",
    "region": "Germany -- 30650",
    "lon": 8.87,
    "lat": 54.13,
    "alternate": null
  },
  {
    "name": "Butedale",
    "country": "Canada",
    "region": "Canada West Coast -- 18080",
    "lon": -128.68,
    "lat": 53.17,
    "alternate": null
  },
  {
    "name": "Butuan City",
    "country": "Philippines",
    "region": "Philippine Islands -- 57960",
    "lon": 125.53,
    "lat": 8.95,
    "alternate": null
  },
  {
    "name": "Butzfleth",
    "country": "Germany",
    "region": "Germany -- 30650",
    "lon": 9.52,
    "lat": 53.65,
    "alternate": null
  },
  {
    "name": "Cabanas",
    "country": "Cuba",
    "region": "Cuba North Coast -- 10030",
    "lon": -82.97,
    "lat": 23.0,
    "alternate": null
  },
  {
    "name": "Cabedelo",
    "country": "Brazil",
    "region": "Brazil SE Coast -- 12700",
    "lon": -34.83,
    "lat": -6.97,
    "alternate": null
  },
  {
    "name": "Cabo Rojo",
    "country": "Dominican Republic",
    "region": "Dominican Republic -- 10950",
    "lon": -71.65,
    "lat": 17.92,
    "alternate": null
  },
  {
    "name": "Cadiz",
    "country": "Spain",
    "region": "Spain SW Coast -- 38200",
    "lon": -6.3,
    "lat": 36.53,
    "alternate": null
  },
  {
    "name": "Cagayan De Oro",
    "country": "Philippines",
    "region": "Philippine Islands -- 57960",
    "lon": 124.67,
    "lat": 8.5,
    "alternate": null
  },
  {
    "name": "Cagliari",
    "country": "Italy",
    "region": "Sardegna -- 39130",
    "lon": 9.1,
    "lat": 39.19,
    "alternate": null
  },
  {
    "name": "Caibarien",
    "country": "Cuba",
    "region": "",
    "lon": -79.47,
    "lat": 22.53,
    "alternate": null
  },
  {
    "name": "Cairns",
    "country": "Australia",
    "region": "Australia -- 53290",
    "lon": 145.78,
    "lat": -16.92,
    "alternate": null
  },
  {
    "name": "Cala Pozzolana",
    "country": "Italy",
    "region": "",
    "lon": 12.85,
    "lat": 35.86,
    "alternate": null
  },
  {
    "name": "Cala Volpe",
    "country": "Italy",
    "region": "Sardegna -- 39130",
    "lon": 9.54,
    "lat": 41.09,
    "alternate": null
  },
  {
    "name": "Calabar",
    "country": "Nigeria",
    "region": "Nigeria -- 46120",
    "lon": 8.32,
    "lat": 4.97,
    "alternate": null
  },
  {
    "name": "Calais",
    "country": "France",
    "region": "France NW Coast -- 35720",
    "lon": 1.85,
    "lat": 50.97,
    "alternate": null
  },
  {
    "name": "Calapan",
    "country": "Philippines",
    "region": "Philippine Islands -- 57960",
    "lon": 121.18,
    "lat": 13.42,
    "alternate": null
  },
  {
    "name": "Calcite",
    "country": "United States",
    "region": "US Lake Huron -- 4300",
    "lon": -83.78,
    "lat": 45.42,
    "alternate": null
  },
  {
    "name": "Calcutta",
    "country": "India",
    "region": "India East Coast -- 49310",
    "lon": 88.33,
    "lat": 22.55,
    "alternate": null
  },
  {
    "name": "Caleta Clarencia",
    "country": "Chile",
    "region": "Chile -- 14070",
    "lon": -70.1,
    "lat": -52.9,
    "alternate": null
  },
  {
    "name": "Caleta Patillos",
    "country": "Chile",
    "region": "Chile -- 14070",
    "lon": -70.2,
    "lat": -20.73,
    "alternate": null
  },
  {
    "name": "Calicut (Kozhikode)",
    "country": "India",
    "region": "India West Coast -- 48610",
    "lon": 75.77,
    "lat": 11.25,
    "alternate": null
  },
  {
    "name": "Calvi",
    "country": "France",
    "region": "Corse -- 39040",
    "lon": 8.75,
    "lat": 42.57,
    "alternate": null
  },
  {
    "name": "Camas",
    "country": "United States",
    "region": "United States W Coast -- 16000",
    "lon": -122.4,
    "lat": 45.58,
    "alternate": null
  },
  {
    "name": "Camden",
    "country": "United States",
    "region": "United States E Coast -- 6585",
    "lon": -75.13,
    "lat": 39.95,
    "alternate": null
  },
  {
    "name": "Camden",
    "country": "United States",
    "region": "United States E Coast -- 6585",
    "lon": -69.07,
    "lat": 44.22,
    "alternate": null
  },
  {
    "name": "Cameta",
    "country": "Brazil",
    "region": "Brazil NE Coast -- 12470",
    "lon": -49.5,
    "lat": -2.25,
    "alternate": null
  },
  {
    "name": "Camocim",
    "country": "Brazil",
    "region": "Brazil NE Coast Cont -- 12575",
    "lon": -40.83,
    "lat": -2.9,
    "alternate": null
  },
  {
    "name": "Campana",
    "country": "Argentina",
    "region": "Argentina -- 13310",
    "lon": -58.97,
    "lat": -34.15,
    "alternate": null
  },
  {
    "name": "Campbeltown",
    "country": "United Kingdom",
    "region": "Scotland West Coast -- 32790",
    "lon": -5.6,
    "lat": 55.43,
    "alternate": null
  },
  {
    "name": "Campeche",
    "country": "Mexico",
    "region": "Mexico East Coast -- 9350",
    "lon": -90.55,
    "lat": 19.85,
    "alternate": null
  },
  {
    "name": "Cannery Bay",
    "country": "United States",
    "region": "Aleutian Islands -- 20095",
    "lon": -166.75,
    "lat": 53.7,
    "alternate": null
  },
  {
    "name": "Cannes",
    "country": "France",
    "region": "France South Coast -- 38710",
    "lon": 7.02,
    "lat": 43.55,
    "alternate": null
  },
  {
    "name": "Canton Island",
    "country": "Kiribati",
    "region": "Kiribati (Phoenix) Islands -- 56019",
    "lon": -171.72,
    "lat": -2.83,
    "alternate": null
  },
  {
    "name": "Cap des Mechins",
    "country": "Canada",
    "region": "Canada St Lawrence R -- 1930",
    "lon": -66.98,
    "lat": 49.0,
    "alternate": null
  },
  {
    "name": "Cape Charles",
    "country": "United States",
    "region": "United States E Coast -- 6585",
    "lon": -76.02,
    "lat": 37.27,
    "alternate": null
  },
  {
    "name": "Cape Cuvier",
    "country": "Australia",
    "region": "Australia -- 53290",
    "lon": 113.38,
    "lat": -24.22,
    "alternate": null
  },
  {
    "name": "Cape Flattery Harbor",
    "country": "Australia",
    "region": "Australia -- 53290",
    "lon": 145.35,
    "lat": -14.95,
    "alternate": null
  },
  {
    "name": "Cape Palmas",
    "country": "Liberia",
    "region": "Liberia -- 45920",
    "lon": -7.72,
    "lat": 4.37,
    "alternate": null
  },
  {
    "name": "Cape Town",
    "country": "South Africa",
    "region": "South Africa -- 46725",
    "lon": 18.42,
    "lat": -33.92,
    "alternate": null
  },
  {
    "name": "Caraquet",
    "country": "Canada",
    "region": "New Brunswick -- 5555",
    "lon": -64.93,
    "lat": 47.8,
    "alternate": null
  },
  {
    "name": "Cardenas",
    "country": "Cuba",
    "region": "Cuba North Coast -- 10030",
    "lon": -81.2,
    "lat": 23.05,
    "alternate": null
  },
  {
    "name": "Cardiff",
    "country": "United Kingdom",
    "region": "Wales -- 34710",
    "lon": -3.17,
    "lat": 51.45,
    "alternate": null
  },
  {
    "name": "Cardinal",
    "country": "Canada",
    "region": "Canada St Lawrence R -- 2545",
    "lon": -75.38,
    "lat": 44.78,
    "alternate": null
  },
  {
    "name": "Carillon",
    "country": "Canada",
    "region": "Ottawa River -- 2270",
    "lon": -74.37,
    "lat": 45.57,
    "alternate": null
  },
  {
    "name": "Caripito",
    "country": "Venezuela",
    "region": "Venezuela -- 11950",
    "lon": -63.03,
    "lat": 10.15,
    "alternate": null
  },
  {
    "name": "Carloforte",
    "country": "Italy",
    "region": "Sardegna -- 39130",
    "lon": 8.32,
    "lat": 39.15,
    "alternate": null
  },
  {
    "name": "Carmanville",
    "country": "Canada",
    "region": "Newfoundland  E Coast -- 1410",
    "lon": -54.27,
    "lat": 49.4,
    "alternate": null
  },
  {
    "name": "Carpinteria",
    "country": "United States",
    "region": "United States W Coast -- 16000",
    "lon": -119.52,
    "lat": 34.38,
    "alternate": null
  },
  {
    "name": "Carrabelle",
    "country": "United States",
    "region": "US Gulf Coast -- 8650",
    "lon": -84.67,
    "lat": 29.85,
    "alternate": null
  },
  {
    "name": "Cartagena",
    "country": "Spain",
    "region": "Spain SE Coast -- 38340",
    "lon": -0.98,
    "lat": 37.58,
    "alternate": null
  },
  {
    "name": "Cartagena",
    "country": "Colombia",
    "region": "Colombia North Coast -- 11860",
    "lon": -75.53,
    "lat": 10.42,
    "alternate": null
  },
  {
    "name": "Carteret",
    "country": "United States",
    "region": "United States E Coast -- 6585",
    "lon": -74.22,
    "lat": 40.58,
    "alternate": null
  },
  {
    "name": "Carupano",
    "country": "Venezuela",
    "region": "Venezuela -- 11950",
    "lon": -63.25,
    "lat": 10.7,
    "alternate": null
  },
  {
    "name": "Casamicciola",
    "country": "Italy",
    "region": "",
    "lon": 13.91,
    "lat": 40.75,
    "alternate": null
  },
  {
    "name": "Castellammare Del Golfo",
    "country": "Italy",
    "region": "",
    "lon": 12.88,
    "lat": 38.03,
    "alternate": null
  },
  {
    "name": "Castellammare Di Stabia",
    "country": "Italy",
    "region": "Italy West Coast Cont -- 39730",
    "lon": 14.48,
    "lat": 40.7,
    "alternate": null
  },
  {
    "name": "Castine",
    "country": "United States",
    "region": "United States E Coast -- 6585",
    "lon": -68.73,
    "lat": 44.38,
    "alternate": null
  },
  {
    "name": "Castle Bay",
    "country": "United Kingdom",
    "region": "Scotland West Coast -- 32790",
    "lon": -7.48,
    "lat": 56.95,
    "alternate": null
  },
  {
    "name": "Castletown Bearhaven",
    "country": "Ireland",
    "region": "Ireland -- 33840",
    "lon": -9.92,
    "lat": 51.65,
    "alternate": null
  },
  {
    "name": "Castries",
    "country": "Saint Lucia",
    "region": "Saint Lucia -- 11615",
    "lon": -61.0,
    "lat": 14.02,
    "alternate": null
  },
  {
    "name": "Cat Lai",
    "country": "Vietnam",
    "region": "Vietnam -- 57510",
    "lon": 106.78,
    "lat": 10.75,
    "alternate": null
  },
  {
    "name": "Catalina Harbor",
    "country": "Canada",
    "region": "Newfoundland  E Coast -- 1410",
    "lon": -53.07,
    "lat": 48.52,
    "alternate": null
  },
  {
    "name": "Catania",
    "country": "Italy",
    "region": "Sicilia -- 40090",
    "lon": 15.1,
    "lat": 37.5,
    "alternate": null
  },
  {
    "name": "Catbalogan",
    "country": "Philippines",
    "region": "Philippine Islands -- 57960",
    "lon": 124.88,
    "lat": 11.77,
    "alternate": null
  },
  {
    "name": "Catia La Mar",
    "country": "Venezuela",
    "region": "Venezuela -- 11950",
    "lon": -67.02,
    "lat": 10.6,
    "alternate": null
  },
  {
    "name": "Catskill",
    "country": "United States",
    "region": "United States E Coast -- 6585",
    "lon": -73.85,
    "lat": 42.22,
    "alternate": null
  },
  {
    "name": "Cayman Brac",
    "country": "Cayman Islands",
    "region": "Cayman Islands -- 10575",
    "lon": -79.75,
    "lat": 19.75,
    "alternate": null
  },
  {
    "name": "Cayo Arcas Terminal",
    "country": "Mexico",
    "region": "Mexico East Coast -- 9350",
    "lon": -91.98,
    "lat": 20.17,
    "alternate": null
  },
  {
    "name": "Cayo Moa Grande",
    "country": "Cuba",
    "region": "Cuba North Coast -- 10030",
    "lon": -74.9,
    "lat": 20.67,
    "alternate": null
  },
  {
    "name": "Cebu",
    "country": "Philippines",
    "region": "Philippine Islands -- 57960",
    "lon": 123.9,
    "lat": 10.3,
    "alternate": null
  },
  {
    "name": "Ceiba Hueca",
    "country": "Cuba",
    "region": "Cuba South Coast -- 10310",
    "lon": -77.32,
    "lat": 20.22,
    "alternate": null
  },
  {
    "name": "Ceiba Terminal",
    "country": "Equatorial Guinea",
    "region": "Equatorial Guinea -- 46300",
    "lon": 9.23,
    "lat": 1.42,
    "alternate": null
  },
  {
    "name": "Celukan Bawang",
    "country": "Indonesia",
    "region": "Jawa -- 50920",
    "lon": 114.83,
    "lat": -8.18,
    "alternate": null
  },
  {
    "name": "Cernavoda",
    "country": "Romania",
    "region": "Romania -- 43540",
    "lon": 28.05,
    "lat": 44.33,
    "alternate": null
  },
  {
    "name": "Cesenatico",
    "country": "Italy",
    "region": "",
    "lon": 12.41,
    "lat": 44.21,
    "alternate": null
  },
  {
    "name": "Ceuta",
    "country": "Spain",
    "region": "",
    "lon": -5.32,
    "lat": 35.9,
    "alternate": null
  },
  {
    "name": "Ch'ongjin",
    "country": "North Korea",
    "region": "North Korea Continued -- 60438",
    "lon": 129.82,
    "lat": 41.77,
    "alternate": null
  },
  {
    "name": "Chaguaramas",
    "country": "Trinidad and Tobago",
    "region": "Trinidad -- 11705",
    "lon": -61.65,
    "lat": 10.68,
    "alternate": null
  },
  {
    "name": "Chake Chake",
    "country": "Tanzania",
    "region": "Tanzania -- 46965",
    "lon": 39.77,
    "lat": -5.25,
    "alternate": null
  },
  {
    "name": "Chandler",
    "country": "Canada",
    "region": "South Side -- 5501",
    "lon": -64.67,
    "lat": 48.35,
    "alternate": null
  },
  {
    "name": "Changshu",
    "country": "China",
    "region": "China Continued -- 59850",
    "lon": 120.95,
    "lat": 31.77,
    "alternate": null
  },
  {
    "name": "Changzhou",
    "country": "China",
    "region": "China Continued -- 59850",
    "lon": 119.98,
    "lat": 31.97,
    "alternate": null
  },
  {
    "name": "Charleston",
    "country": "United States",
    "region": "United States E Coast -- 6585",
    "lon": -79.92,
    "lat": 32.78,
    "alternate": null
  },
  {
    "name": "Charlestown",
    "country": "United Kingdom",
    "region": "England South Coast -- 35220",
    "lon": -4.75,
    "lat": 50.33,
    "alternate": null
  },
  {
    "name": "Charlestown",
    "country": "Saint Kitts and Nevis",
    "region": "Saint Kitts and Nevis -- 11392",
    "lon": -62.63,
    "lat": 17.13,
    "alternate": null
  },
  {
    "name": "Charlevoix",
    "country": "United States",
    "region": "US Lake Michigan -- 4570",
    "lon": -85.27,
    "lat": 45.32,
    "alternate": null
  },
  {
    "name": "Charlottetown",
    "country": "Canada",
    "region": "Prince Edward Island -- 5705",
    "lon": -63.13,
    "lat": 46.23,
    "alternate": null
  },
  {
    "name": "Chatham",
    "country": "United States",
    "region": "Alaska -- 19080",
    "lon": -134.93,
    "lat": 57.52,
    "alternate": null
  },
  {
    "name": "Chatham Docks",
    "country": "United Kingdom",
    "region": "England East Coast -- 31330",
    "lon": 0.55,
    "lat": 51.4,
    "alternate": null
  },
  {
    "name": "Chaumont",
    "country": "United States",
    "region": "US Lake Ontario -- 3120",
    "lon": -76.13,
    "lat": 44.07,
    "alternate": null
  },
  {
    "name": "Cheboygan",
    "country": "United States",
    "region": "US Lake Huron -- 4300",
    "lon": -84.47,
    "lat": 45.65,
    "alternate": null
  },
  {
    "name": "Chennai (Madras)",
    "country": "India",
    "region": "India East Coast -- 49310",
    "lon": 80.3,
    "lat": 13.1,
    "alternate": null
  },
  {
    "name": "Cherry Point",
    "country": "United States",
    "region": "United States W Coast -- 16000",
    "lon": -122.75,
    "lat": 48.87,
    "alternate": null
  },
  {
    "name": "Chester",
    "country": "United States",
    "region": "United States E Coast -- 6585",
    "lon": -75.35,
    "lat": 39.85,
    "alternate": null
  },
  {
    "name": "Chiavari - Lavagna",
    "country": "Italy",
    "region": "",
    "lon": 9.33,
    "lat": 44.3,
    "alternate": null
  },
  {
    "name": "Chicago",
    "country": "United States",
    "region": "US Lake Michigan -- 4570",
    "lon": -87.6,
    "lat": 41.88,
    "alternate": null
  },
  {
    "name": "Chignik",
    "country": "United States",
    "region": "Alaska -- 19080",
    "lon": -158.4,
    "lat": 56.3,
    "alternate": null
  },
  {
    "name": "Chinde",
    "country": "Mozambique",
    "region": "Mozambique -- 46860",
    "lon": 36.5,
    "lat": -18.57,
    "alternate": null
  },
  {
    "name": "Chittagong",
    "country": "Bangladesh",
    "region": "Bangladesh -- 49570",
    "lon": 91.82,
    "lat": 22.32,
    "alternate": null
  },
  {
    "name": "Christianso Harbor",
    "country": "Denmark",
    "region": "Bornholm -- 29020",
    "lon": 15.18,
    "lat": 55.32,
    "alternate": null
  },
  {
    "name": "Christiansted",
    "country": "U.S. Virgin Islands",
    "region": "St Croix -- 11325",
    "lon": -64.7,
    "lat": 17.75,
    "alternate": null
  },
  {
    "name": "Chrome",
    "country": "United States",
    "region": "United States E Coast -- 6585",
    "lon": -74.22,
    "lat": 40.57,
    "alternate": null
  },
  {
    "name": "Churchill",
    "country": "Canada",
    "region": "Hudson Bay -- 1070",
    "lon": -94.2,
    "lat": 58.78,
    "alternate": null
  },
  {
    "name": "Chute A Blondeau",
    "country": "Canada",
    "region": "Ottawa River -- 2270",
    "lon": -74.47,
    "lat": 45.58,
    "alternate": null
  },
  {
    "name": "Cienfuegos",
    "country": "Cuba",
    "region": "Cuba South Coast -- 10310",
    "lon": -80.45,
    "lat": 22.15,
    "alternate": null
  },
  {
    "name": "Cinta Oil Terminal",
    "country": "Indonesia",
    "region": "Indonesia -- 50020",
    "lon": 106.23,
    "lat": -5.5,
    "alternate": null
  },
  {
    "name": "Cirebon",
    "country": "Indonesia",
    "region": "Jawa -- 50920",
    "lon": 108.57,
    "lat": -6.72,
    "alternate": null
  },
  {
    "name": "Ciro Marina",
    "country": "Italy",
    "region": "",
    "lon": 17.14,
    "lat": 39.37,
    "alternate": null
  },
  {
    "name": "City Island",
    "country": "United States",
    "region": "United States E Coast -- 6585",
    "lon": -73.78,
    "lat": 40.85,
    "alternate": null
  },
  {
    "name": "Ciudad Bolivar",
    "country": "Venezuela",
    "region": "Venezuela -- 11950",
    "lon": -63.55,
    "lat": 8.13,
    "alternate": null
  },
  {
    "name": "Civitanova Marche",
    "country": "Italy",
    "region": "",
    "lon": 13.73,
    "lat": 43.32,
    "alternate": null
  },
  {
    "name": "Civitavecchia",
    "country": "Italy",
    "region": "Italy West Coast Cont -- 39730",
    "lon": 11.77,
    "lat": 42.1,
    "alternate": null
  },
  {
    "name": "Clarenville",
    "country": "Canada",
    "region": "Newfoundland  E Coast -- 1410",
    "lon": -53.96,
    "lat": 48.18,
    "alternate": null
  },
  {
    "name": "Clarks Point",
    "country": "United States",
    "region": "Alaska Continued -- 20185",
    "lon": -158.55,
    "lat": 58.85,
    "alternate": null
  },
  {
    "name": "Claveria",
    "country": "Philippines",
    "region": "Philippine Islands -- 57960",
    "lon": 121.08,
    "lat": 18.62,
    "alternate": null
  },
  {
    "name": "Clayoquot",
    "country": "Canada",
    "region": "Canada West Coast -- 18080",
    "lon": -125.92,
    "lat": 49.15,
    "alternate": null
  },
  {
    "name": "Clayton",
    "country": "United States",
    "region": "US St Lawrence R -- 2750",
    "lon": -76.05,
    "lat": 44.23,
    "alternate": null
  },
  {
    "name": "Cleveland",
    "country": "United States",
    "region": "US Lake Erie -- 3400",
    "lon": -81.72,
    "lat": 41.5,
    "alternate": null
  },
  {
    "name": "Clifton Pier",
    "country": "The Bahamas",
    "region": "Bahama Islands -- 9980",
    "lon": -77.55,
    "lat": 25.0,
    "alternate": null
  },
  {
    "name": "Coal Harbor",
    "country": "Canada",
    "region": "Canada West Coast -- 18080",
    "lon": -127.58,
    "lat": 50.6,
    "alternate": null
  },
  {
    "name": "Coal Point",
    "country": "United States",
    "region": "Alaska -- 19080",
    "lon": -151.41,
    "lat": 59.6,
    "alternate": null
  },
  {
    "name": "Cobh",
    "country": "Ireland",
    "region": "Ireland -- 33840",
    "lon": -8.3,
    "lat": 51.85,
    "alternate": null
  },
  {
    "name": "Cobourg",
    "country": "Canada",
    "region": "Canada Lake Ontario -- 2820",
    "lon": -78.17,
    "lat": 43.95,
    "alternate": null
  },
  {
    "name": "Cockburn",
    "country": "Canada",
    "region": "Canada Lake Huron -- 3640",
    "lon": -83.32,
    "lat": 45.95,
    "alternate": null
  },
  {
    "name": "Cockburn Harbor",
    "country": "Turks and Caicos Islands",
    "region": "Turks and Caicos Is -- 10016",
    "lon": -71.53,
    "lat": 21.5,
    "alternate": null
  },
  {
    "name": "Cockburn Town",
    "country": "The Bahamas",
    "region": "West Indies -- 9970",
    "lon": -74.53,
    "lat": 24.05,
    "alternate": null
  },
  {
    "name": "Colchester",
    "country": "United Kingdom",
    "region": "England East Coast -- 31330",
    "lon": 0.92,
    "lat": 51.88,
    "alternate": null
  },
  {
    "name": "Cold Bay",
    "country": "United States",
    "region": "Alaska -- 19080",
    "lon": -162.7,
    "lat": 55.2,
    "alternate": null
  },
  {
    "name": "Coleraine",
    "country": "United Kingdom",
    "region": "Northern Ireland -- 33630",
    "lon": -6.67,
    "lat": 55.13,
    "alternate": null
  },
  {
    "name": "Coles Bay Oil Terminal",
    "country": "Sint Maarten",
    "region": "St Martin -- 11355",
    "lon": -63.08,
    "lat": 18.02,
    "alternate": null
  },
  {
    "name": "Collingwood",
    "country": "New Zealand",
    "region": "New Zealand S Island -- 55260",
    "lon": 172.67,
    "lat": -40.68,
    "alternate": null
  },
  {
    "name": "Collingwood",
    "country": "Canada",
    "region": "Canada Lake Huron -- 3640",
    "lon": -80.23,
    "lat": 44.5,
    "alternate": null
  },
  {
    "name": "Collo",
    "country": "Algeria",
    "region": "Algeria -- 45470",
    "lon": 6.58,
    "lat": 37.0,
    "alternate": null
  },
  {
    "name": "Colombo",
    "country": "Sri Lanka",
    "region": "Sri Lanka -- 49210",
    "lon": 79.85,
    "lat": 6.95,
    "alternate": null
  },
  {
    "name": "Colon",
    "country": "Argentina",
    "region": "Argentina -- 13310",
    "lon": -58.13,
    "lat": -32.22,
    "alternate": null
  },
  {
    "name": "Columbia",
    "country": "United States",
    "region": "United States E Coast -- 6585",
    "lon": -76.25,
    "lat": 35.92,
    "alternate": null
  },
  {
    "name": "Come By Chance Harbor",
    "country": "Canada",
    "region": "Newfoundland S Coast -- 1680",
    "lon": -54.02,
    "lat": 47.8,
    "alternate": null
  },
  {
    "name": "Comodoro Rivadavia",
    "country": "Argentina",
    "region": "Argentina -- 13310",
    "lon": -67.47,
    "lat": -45.87,
    "alternate": null
  },
  {
    "name": "Comox Harbor",
    "country": "Canada",
    "region": "Canada West Coast -- 18080",
    "lon": -124.92,
    "lat": 49.67,
    "alternate": null
  },
  {
    "name": "Concarneau",
    "country": "France",
    "region": "France West Coast -- 36450",
    "lon": -3.92,
    "lat": 47.87,
    "alternate": null
  },
  {
    "name": "Concepcion Del Uruguay",
    "country": "Argentina",
    "region": "Argentina -- 13310",
    "lon": -58.23,
    "lat": -32.48,
    "alternate": null
  },
  {
    "name": "Conchan Oil Terminal",
    "country": "Peru",
    "region": "Peru -- 14830",
    "lon": -77.0,
    "lat": -12.17,
    "alternate": null
  },
  {
    "name": "Concordia",
    "country": "Argentina",
    "region": "Argentina -- 13310",
    "lon": -58.03,
    "lat": -31.4,
    "alternate": null
  },
  {
    "name": "Conneaut",
    "country": "United States",
    "region": "US Lake Erie -- 3400",
    "lon": -80.55,
    "lat": 41.97,
    "alternate": null
  },
  {
    "name": "Constantine Harbor",
    "country": "United States",
    "region": "Aleutian Islands -- 20095",
    "lon": 179.3,
    "lat": 51.4,
    "alternate": null
  },
  {
    "name": "Contrecour",
    "country": "Canada",
    "region": "Canada Lake Ontario -- 2820",
    "lon": -73.2,
    "lat": 45.88,
    "alternate": null
  },
  {
    "name": "Convent",
    "country": "United States",
    "region": "US Gulf Coast -- 8650",
    "lon": -90.83,
    "lat": 30.02,
    "alternate": null
  },
  {
    "name": "Coos Bay",
    "country": "United States",
    "region": "United States W Coast -- 16000",
    "lon": -124.22,
    "lat": 43.37,
    "alternate": null
  },
  {
    "name": "Copper Harbor",
    "country": "United States",
    "region": "US Lake Superior -- 5230",
    "lon": -87.87,
    "lat": 47.47,
    "alternate": null
  },
  {
    "name": "Coquimbo",
    "country": "Chile",
    "region": "Chile -- 14070",
    "lon": -71.33,
    "lat": -29.95,
    "alternate": null
  },
  {
    "name": "Cordova",
    "country": "United States",
    "region": "Alaska -- 19080",
    "lon": -145.77,
    "lat": 60.55,
    "alternate": null
  },
  {
    "name": "Corea",
    "country": "United States",
    "region": "United States E Coast -- 6585",
    "lon": -67.97,
    "lat": 44.4,
    "alternate": null
  },
  {
    "name": "Corigliano Calabro",
    "country": "Italy",
    "region": "",
    "lon": 16.53,
    "lat": 39.67,
    "alternate": null
  },
  {
    "name": "Corinto",
    "country": "Nicaragua",
    "region": "Nicaragua West Coast -- 15520",
    "lon": -87.17,
    "lat": 12.48,
    "alternate": null
  },
  {
    "name": "Cork",
    "country": "Ireland",
    "region": "Ireland -- 33840",
    "lon": -8.27,
    "lat": 51.85,
    "alternate": null
  },
  {
    "name": "Corner Brook",
    "country": "Canada",
    "region": "Newfoundland  W Coast -- 1800",
    "lon": -57.95,
    "lat": 48.95,
    "alternate": null
  },
  {
    "name": "Cornucopia",
    "country": "United States",
    "region": "US Lake Superior -- 5230",
    "lon": -91.1,
    "lat": 46.87,
    "alternate": null
  },
  {
    "name": "Cornwall",
    "country": "Canada",
    "region": "Canada St Lawrence R -- 2545",
    "lon": -74.73,
    "lat": 45.02,
    "alternate": null
  },
  {
    "name": "Coronel",
    "country": "Chile",
    "region": "Chile -- 14070",
    "lon": -73.17,
    "lat": -37.03,
    "alternate": null
  },
  {
    "name": "Corpach",
    "country": "United Kingdom",
    "region": "Scotland West Coast -- 32790",
    "lon": -5.12,
    "lat": 56.85,
    "alternate": null
  },
  {
    "name": "Corpus Christi",
    "country": "United States",
    "region": "US Gulf Coast -- 8650",
    "lon": -97.4,
    "lat": 27.82,
    "alternate": null
  },
  {
    "name": "Coupeville",
    "country": "United States",
    "region": "United States W Coast -- 16000",
    "lon": -122.68,
    "lat": 48.23,
    "alternate": null
  },
  {
    "name": "Courtland",
    "country": "United States",
    "region": "United States W Coast -- 16000",
    "lon": -121.57,
    "lat": 38.33,
    "alternate": null
  },
  {
    "name": "Courtright",
    "country": "Canada",
    "region": "Canada Lake Huron -- 3640",
    "lon": -82.47,
    "lat": 42.82,
    "alternate": null
  },
  {
    "name": "Covenas Offshore Term.",
    "country": "Colombia",
    "region": "Colombia North Coast -- 11860",
    "lon": -75.73,
    "lat": 9.5,
    "alternate": null
  },
  {
    "name": "Cowes Harbour",
    "country": "United Kingdom",
    "region": "England South Coast -- 35220",
    "lon": -1.3,
    "lat": 50.77,
    "alternate": null
  },
  {
    "name": "Cowichan Bay",
    "country": "Canada",
    "region": "Canada West Coast -- 18080",
    "lon": -123.62,
    "lat": 48.75,
    "alternate": null
  },
  {
    "name": "Crab Bay",
    "country": "United States",
    "region": "Alaska -- 19080",
    "lon": -148.0,
    "lat": 60.07,
    "alternate": null
  },
  {
    "name": "Craig",
    "country": "United States",
    "region": "Alaska -- 19080",
    "lon": -133.15,
    "lat": 55.47,
    "alternate": null
  },
  {
    "name": "Craignure",
    "country": "United Kingdom",
    "region": "Scotland West Coast -- 32790",
    "lon": -5.7,
    "lat": 56.47,
    "alternate": null
  },
  {
    "name": "Crawley Creek",
    "country": "Canada",
    "region": "Cape Breton Island -- 5860",
    "lon": -60.22,
    "lat": 46.15,
    "alternate": null
  },
  {
    "name": "Creosote",
    "country": "United States",
    "region": "United States W Coast -- 16000",
    "lon": -122.5,
    "lat": 47.62,
    "alternate": null
  },
  {
    "name": "Crescent City",
    "country": "United States",
    "region": "United States W Coast -- 16000",
    "lon": -124.2,
    "lat": 41.75,
    "alternate": null
  },
  {
    "name": "Criehaven",
    "country": "United States",
    "region": "United States E Coast -- 6585",
    "lon": -68.88,
    "lat": 43.83,
    "alternate": null
  },
  {
    "name": "Crinan (Canal)",
    "country": "United Kingdom",
    "region": "Scotland West Coast -- 32790",
    "lon": -5.57,
    "lat": 56.08,
    "alternate": null
  },
  {
    "name": "Crockett",
    "country": "United States",
    "region": "United States W Coast -- 16000",
    "lon": -122.22,
    "lat": 38.05,
    "alternate": null
  },
  {
    "name": "Crofton",
    "country": "Canada",
    "region": "Canada West Coast -- 18080",
    "lon": -123.63,
    "lat": 48.87,
    "alternate": null
  },
  {
    "name": "Cromarty",
    "country": "United Kingdom",
    "region": "Scotland East Coast -- 31870",
    "lon": -4.03,
    "lat": 57.68,
    "alternate": null
  },
  {
    "name": "Cruz Bay",
    "country": "U.S. Virgin Islands",
    "region": "St John -- 11315",
    "lon": -64.8,
    "lat": 18.33,
    "alternate": null
  },
  {
    "name": "Cuddalore",
    "country": "India",
    "region": "India East Coast -- 49310",
    "lon": 79.77,
    "lat": 11.72,
    "alternate": null
  },
  {
    "name": "Cumberland",
    "country": "Canada",
    "region": "Ottawa River -- 2270",
    "lon": -75.4,
    "lat": 45.52,
    "alternate": null
  },
  {
    "name": "Cundy Harbor",
    "country": "United States",
    "region": "United States E Coast -- 6585",
    "lon": -69.9,
    "lat": 43.78,
    "alternate": null
  },
  {
    "name": "Cushman",
    "country": "United States",
    "region": "United States W Coast -- 16000",
    "lon": -124.07,
    "lat": 43.98,
    "alternate": null
  },
  {
    "name": "Cuxhaven",
    "country": "Germany",
    "region": "Germany -- 30650",
    "lon": 8.72,
    "lat": 53.87,
    "alternate": null
  },
  {
    "name": "Dahej",
    "country": "India",
    "region": "India West Coast -- 48610",
    "lon": 72.53,
    "lat": 21.7,
    "alternate": null
  },
  {
    "name": "Dai Hang",
    "country": "Vietnam",
    "region": "Vietnam -- 57510",
    "lon": 108.68,
    "lat": 8.48,
    "alternate": null
  },
  {
    "name": "Dakar",
    "country": "Senegal",
    "region": "Senegal -- 45817",
    "lon": -17.43,
    "lat": 14.68,
    "alternate": null
  },
  {
    "name": "Dalhousie",
    "country": "Canada",
    "region": "New Brunswick -- 5555",
    "lon": -66.37,
    "lat": 48.07,
    "alternate": null
  },
  {
    "name": "Dalia Terminal",
    "country": "Angola",
    "region": "Angola -- 46540",
    "lon": 11.77,
    "lat": -7.68,
    "alternate": null
  },
  {
    "name": "Dalvik",
    "country": "Iceland",
    "region": "Iceland  North Coast -- 200",
    "lon": -18.52,
    "lat": 65.98,
    "alternate": null
  },
  {
    "name": "Damietta",
    "country": "Egypt",
    "region": "Egypt Mediterranean -- 45120",
    "lon": 31.75,
    "lat": 31.48,
    "alternate": null
  },
  {
    "name": "Dampier",
    "country": "Australia",
    "region": "Australia -- 53290",
    "lon": 116.72,
    "lat": -20.63,
    "alternate": null
  },
  {
    "name": "Dandong",
    "country": "China",
    "region": "China Continued -- 59850",
    "lon": 124.15,
    "lat": 39.82,
    "alternate": null
  },
  {
    "name": "Danube-Black Sea Canal",
    "country": "Romania",
    "region": "Romania -- 43540",
    "lon": 28.18,
    "lat": 44.27,
    "alternate": null
  },
  {
    "name": "Dar Es Salaam",
    "country": "Tanzania",
    "region": "Tanzania -- 46965",
    "lon": 39.3,
    "lat": -6.82,
    "alternate": null
  },
  {
    "name": "Darien",
    "country": "United States",
    "region": "United States E Coast -- 6585",
    "lon": -81.43,
    "lat": 31.37,
    "alternate": null
  },
  {
    "name": "Dartmouth Harbour",
    "country": "United Kingdom",
    "region": "England South Coast -- 35220",
    "lon": -3.62,
    "lat": 50.35,
    "alternate": null
  },
  {
    "name": "Daru",
    "country": "Papua New Guinea",
    "region": "New Guinea SE Coast -- 53140",
    "lon": 143.2,
    "lat": -9.07,
    "alternate": null
  },
  {
    "name": "Darwin",
    "country": "Australia",
    "region": "Australia -- 53290",
    "lon": 130.85,
    "lat": -12.47,
    "alternate": null
  },
  {
    "name": "Davao",
    "country": "Philippines",
    "region": "Philippine Islands -- 57960",
    "lon": 125.62,
    "lat": 7.07,
    "alternate": null
  },
  {
    "name": "Davenport",
    "country": "United States",
    "region": "United States W Coast -- 16000",
    "lon": -122.2,
    "lat": 37.02,
    "alternate": null
  },
  {
    "name": "Davisville Depot",
    "country": "United States",
    "region": "United States E Coast -- 6585",
    "lon": -71.4,
    "lat": 41.62,
    "alternate": null
  },
  {
    "name": "De Kastri",
    "country": "Russia",
    "region": "Russia -- 60530",
    "lon": 140.78,
    "lat": 51.47,
    "alternate": null
  },
  {
    "name": "Deauville",
    "country": "France",
    "region": "France NW Coast -- 35720",
    "lon": 0.08,
    "lat": 49.37,
    "alternate": null
  },
  {
    "name": "Deception Bay",
    "country": "Canada",
    "region": "",
    "lon": -74.68,
    "lat": 62.15,
    "alternate": null
  },
  {
    "name": "Deepwater Point",
    "country": "United States",
    "region": "United States E Coast -- 6585",
    "lon": -75.52,
    "lat": 39.7,
    "alternate": null
  },
  {
    "name": "Deer Park",
    "country": "United States",
    "region": "US Gulf Coast -- 8650",
    "lon": -95.33,
    "lat": 29.75,
    "alternate": null
  },
  {
    "name": "Deering",
    "country": "United States",
    "region": "Alaska Continued -- 20185",
    "lon": -162.73,
    "lat": 66.08,
    "alternate": null
  },
  {
    "name": "Defterdar Burnu",
    "country": "Turkey",
    "region": "Turkey Europe -- 43325",
    "lon": 29.03,
    "lat": 41.05,
    "alternate": null
  },
  {
    "name": "Degerhamn",
    "country": "Sweden",
    "region": "Oland -- 24735",
    "lon": 16.42,
    "lat": 56.35,
    "alternate": null
  },
  {
    "name": "Degrad Des Cannes",
    "country": "French Guiana",
    "region": "French Guiana -- 12440",
    "lon": -52.27,
    "lat": 4.85,
    "alternate": null
  },
  {
    "name": "Delfzijl",
    "country": "Netherlands",
    "region": "Netherlands -- 30980",
    "lon": 6.93,
    "lat": 53.33,
    "alternate": null
  },
  {
    "name": "Dellys",
    "country": "Algeria",
    "region": "Algeria -- 45470",
    "lon": 3.92,
    "lat": 36.92,
    "alternate": null
  },
  {
    "name": "Delta Terminal",
    "country": "Turkey",
    "region": "Turkey Asia -- 44360",
    "lon": 36.17,
    "lat": 36.85,
    "alternate": null
  },
  {
    "name": "Depere",
    "country": "United States",
    "region": "US Lake Michigan -- 4570",
    "lon": -88.07,
    "lat": 44.45,
    "alternate": null
  },
  {
    "name": "Depoe Bay",
    "country": "United States",
    "region": "United States W Coast -- 16000",
    "lon": -124.07,
    "lat": 44.8,
    "alternate": null
  },
  {
    "name": "Depot Harbour",
    "country": "Canada",
    "region": "Canada Lake Huron -- 3640",
    "lon": -80.1,
    "lat": 45.32,
    "alternate": null
  },
  {
    "name": "Derince Burnu",
    "country": "Turkey",
    "region": "Turkey Asia -- 44360",
    "lon": 29.82,
    "lat": 40.75,
    "alternate": null
  },
  {
    "name": "Desbarats",
    "country": "Canada",
    "region": "Canada Lake Huron -- 3640",
    "lon": -83.92,
    "lat": 46.33,
    "alternate": null
  },
  {
    "name": "Destrehan",
    "country": "United States",
    "region": "US Gulf Coast -- 8650",
    "lon": -90.37,
    "lat": 29.95,
    "alternate": null
  },
  {
    "name": "Detroit",
    "country": "United States",
    "region": "US Lake Erie -- 3400",
    "lon": -83.03,
    "lat": 42.33,
    "alternate": null
  },
  {
    "name": "Devonport",
    "country": "Australia",
    "region": "Tasmania -- 54700",
    "lon": 146.37,
    "lat": -41.18,
    "alternate": null
  },
  {
    "name": "Dhamra",
    "country": "India",
    "region": "India East Coast -- 49310",
    "lon": 86.97,
    "lat": 20.82,
    "alternate": null
  },
  {
    "name": "Dhekelia",
    "country": "Cyprus",
    "region": "Cyprus -- 44890",
    "lon": 33.72,
    "lat": 34.97,
    "alternate": null
  },
  {
    "name": "Diamante",
    "country": "Argentina",
    "region": "Argentina -- 13310",
    "lon": -60.65,
    "lat": -32.07,
    "alternate": null
  },
  {
    "name": "Didon Terminal",
    "country": "Tunisia",
    "region": "Tunisia -- 45360",
    "lon": 11.9,
    "lat": 33.78,
    "alternate": null
  },
  {
    "name": "Diego Garcia",
    "country": "British Indian Ocean Territory",
    "region": "Chagos Archipelago -- 47760",
    "lon": 72.47,
    "lat": -7.35,
    "alternate": null
  },
  {
    "name": "Dieppe",
    "country": "France",
    "region": "France NW Coast -- 35720",
    "lon": 1.08,
    "lat": 49.93,
    "alternate": null
  },
  {
    "name": "Digby",
    "country": "Canada",
    "region": "Nova Scotia Cont -- 6070",
    "lon": -65.77,
    "lat": 44.62,
    "alternate": null
  },
  {
    "name": "Dikili",
    "country": "Turkey",
    "region": "Turkey Asia -- 44360",
    "lon": 26.82,
    "lat": 39.02,
    "alternate": null
  },
  {
    "name": "Dili",
    "country": "Timor-Leste",
    "region": "East Timor -- 51430",
    "lon": 125.58,
    "lat": -8.53,
    "alternate": null
  },
  {
    "name": "Dillingham",
    "country": "United States",
    "region": "Alaska Continued -- 20185",
    "lon": -158.48,
    "lat": 59.03,
    "alternate": null
  },
  {
    "name": "Dingwall Harbor",
    "country": "Canada",
    "region": "Cape Breton Island -- 5860",
    "lon": -60.47,
    "lat": 46.9,
    "alternate": null
  },
  {
    "name": "Discovery Bay",
    "country": "Papua New Guinea",
    "region": "New Guinea SE Coast -- 53140",
    "lon": 150.42,
    "lat": -10.42,
    "alternate": null
  },
  {
    "name": "Djen-Djen",
    "country": "Algeria",
    "region": "Algeria -- 45470",
    "lon": 5.88,
    "lat": 36.82,
    "alternate": null
  },
  {
    "name": "Djeno Terminal",
    "country": "Congo (Brazzaville)",
    "region": "Congo -- 46455",
    "lon": 11.9,
    "lat": -4.93,
    "alternate": null
  },
  {
    "name": "Djupivogur",
    "country": "Iceland",
    "region": "Iceland  East Coast -- 360",
    "lon": -14.28,
    "lat": 64.67,
    "alternate": null
  },
  {
    "name": "Djupviken",
    "country": "Norway",
    "region": "Norway -- 20620",
    "lon": 11.43,
    "lat": 63.79,
    "alternate": null
  },
  {
    "name": "Dnipro-Buzkyy",
    "country": "Ukraine",
    "region": "Ukraine -- 43620",
    "lon": 31.88,
    "lat": 46.73,
    "alternate": null
  },
  {
    "name": "Domsjo",
    "country": "Sweden",
    "region": "Sweden Cont -- 24975",
    "lon": 18.73,
    "lat": 63.27,
    "alternate": null
  },
  {
    "name": "Donges",
    "country": "France",
    "region": "France West Coast -- 36450",
    "lon": -2.07,
    "lat": 47.3,
    "alternate": null
  },
  {
    "name": "Donggala",
    "country": "Indonesia",
    "region": "Sulawesi -- 51970",
    "lon": 119.73,
    "lat": -0.65,
    "alternate": null
  },
  {
    "name": "Dongshan",
    "country": "China",
    "region": "China -- 57855",
    "lon": 117.5,
    "lat": 23.76,
    "alternate": null
  },
  {
    "name": "Doraleh",
    "country": "Djibouti",
    "region": "Djibouti -- 47840",
    "lon": 43.09,
    "lat": 11.6,
    "alternate": null
  },
  {
    "name": "Dordrecht",
    "country": "Netherlands",
    "region": "Netherlands -- 30980",
    "lon": 4.65,
    "lat": 51.82,
    "alternate": null
  },
  {
    "name": "Dos Bocas Terminal",
    "country": "Mexico",
    "region": "Mexico East Coast -- 9350",
    "lon": -93.22,
    "lat": 18.43,
    "alternate": null
  },
  {
    "name": "Douglas",
    "country": "Isle of Man",
    "region": "Isle of Man -- 33580",
    "lon": -4.47,
    "lat": 54.15,
    "alternate": null
  },
  {
    "name": "Douglastown",
    "country": "Canada",
    "region": "South Side -- 5501",
    "lon": -64.38,
    "lat": 48.77,
    "alternate": null
  },
  {
    "name": "Dover",
    "country": "Australia",
    "region": "Tasmania -- 54700",
    "lon": 147.03,
    "lat": -43.32,
    "alternate": null
  },
  {
    "name": "Dover Harbor",
    "country": "United Kingdom",
    "region": "England South Coast -- 35220",
    "lon": 1.33,
    "lat": 51.12,
    "alternate": null
  },
  {
    "name": "Drag",
    "country": "Norway",
    "region": "Norway -- 20620",
    "lon": 16.08,
    "lat": 68.05,
    "alternate": null
  },
  {
    "name": "Drammen",
    "country": "Norway",
    "region": "Norway -- 20620",
    "lon": 10.25,
    "lat": 59.73,
    "alternate": null
  },
  {
    "name": "Drift River",
    "country": "United States",
    "region": "Alaska -- 19080",
    "lon": -152.13,
    "lat": 60.55,
    "alternate": null
  },
  {
    "name": "Drobak",
    "country": "Norway",
    "region": "Norway -- 20620",
    "lon": 10.62,
    "lat": 59.66,
    "alternate": null
  },
  {
    "name": "Drogheda",
    "country": "Ireland",
    "region": "Ireland -- 33840",
    "lon": -6.3,
    "lat": 53.72,
    "alternate": null
  },
  {
    "name": "Dry Spruce Bay",
    "country": "United States",
    "region": "Alaska -- 19080",
    "lon": -153.03,
    "lat": 57.93,
    "alternate": null
  },
  {
    "name": "Dtse / Gegua Oil Terminal",
    "country": "Brazil",
    "region": "Brazil SE Coast -- 12700",
    "lon": -43.15,
    "lat": -22.82,
    "alternate": null
  },
  {
    "name": "Duba Bulk Plant Tanker Terminal",
    "country": "Saudi Arabia",
    "region": "Saudi Arabia -- 48100",
    "lon": 35.9,
    "lat": 27.32,
    "alternate": null
  },
  {
    "name": "Dudinka",
    "country": "Russia",
    "region": "Russia -- 62530",
    "lon": 86.17,
    "lat": 69.4,
    "alternate": null
  },